ID,id_ej,finess,rs,adresse,cpl_loc,longitude,latitude,mod_prel,public,horaire,horaire_prio,check_rdv,tel_rdv,web_rdv,date_modif
HlI2rCJ014Dk4X3Z,010001725,010001733,LBM CROIX BLANCHE BOURG EN B,51 AV AMEDEE MERCIER 01000 BOURG EN BRESSE,,5.24185205182066,46.2038511077026,Sur place,Tout public,lundi : 8h00-12h00 et 14h00-19h00 | mardi : 8h00-12h00 et 14h00-19h00 | mercredi : 8h00-12h00 et 14h00-19h00 | jeudi : 8h00-12h00 et 14h00-19h00 | vendredi : 8h00-12h00 et 14h00-19h00 | samedi : 8h00-12h00 | dimanche : fermé,,Sur rendez-vous uniquement,0474452636,,2020-09-24
N6k2IZRxWgysYAUD,010009843,010009850,LBM BIOPTEAM BOURG EN B LALANDE,14 R DE LA GRENOUILLERE 01000 BOURG EN BRESSE,,5.22631295949965,46.2084885923992,Sur place,Tout public,,,,0474226107,,2020-09-24
aXgKkWXOZyDwwQog,010009843,010009868,LBM BIOPTEAM BOURG EN B BRETIN,8 PL JOUBERT 01000 BOURG EN BRESSE,,5.22213399470798,46.2031860200091,Sur place,Tout public,lundi : 10h00-12h00  mardi : 10h00-12h00  mercredi : 10h00-12h00  jeudi : 10h00-12h00  vendredi : 10h00-12h00  samedi : fermé  dimanche : fermé,,,0474225209,,2020-09-24
dIv6XOa41yZUSmf8,010009843,010009876,LBM BIOPTEAM VONNAS,48 PL FERDINAND DE BEOST 01540 VONNAS,,4.99175034653428,46.2187859343967,Sur place,Tout public,lundi : 8h30-16h30  mardi : 8h30-16h30  mercredi : 8h30-16h30  jeudi : 8h30-16h30  vendredi : 8h30-16h30  samedi : fermé  dimanche : fermé,,,0474500517,,2020-09-24
B1J9ffrWHd9E2SSQ,020000063,020000162,CH SAINT-QUENTIN,1 R MICHEL DE L'HOSPITAL 02321 ST QUENTIN CEDEX,,3.26915268288148,49.8618454092128,Sur place,Tout public,,,,,,2020-09-24
3PPcHNAmzXJjtRFb,020000063,020004586,EHPAD CH SAINT-QUENTIN HUGO,19 BD VICTOR HUGO 02321 ST QUENTIN CEDEX,,3.28234027914075,49.8425993281576,Sur place,Tout public,,,,,,2020-09-24
NJqQtkPszLhpOxJK,020000063,020014296,EHPAD CH SAINT-QUENTIN,1 AV MICHEL DE L'HOSPITAL 02100 ST QUENTIN,,3.26915268288148,49.8618454092128,Sur place,Tout public,,,,,,2020-09-24
Uc6HH0HHEygbDJWj,020000063,020014676,CMP CH SAINT-QUENTIN BOHAIN-EN-VER,CHE DES DAMES 02110 BOHAIN EN VERMANDOIS,,3.46195799260521,49.992702979735,Sur place,Tout public,,,,,,2020-09-24
s3hdJbO78bUsZIpL,020000063,020016366,SMUR CH SAINT-QUENTIN GUISE,858 R DES DOCTEURS DEVILLERS 02120 GUISE,,3.64005056106045,49.9028455995078,Sur place,Tout public,,,,,,2020-09-24
wrHHpxvrV8a3e2Er,020000253,020000394,CH LAON,33 R MARCELIN BERTHELOT 02001 LAON CEDEX,"salle de prélèvement Covid, couloir B",3.61096827863758,49.5637153867027,Sur place,Tout public,lundi : 9h00-17h00 | mardi : 9h00-17h00 | mercredi : 9h00-17h00 | jeudi : 9h00-17h00 | vendredi : 9h00-17h00 | samedi : fermé | dimanche : fermé,,Sur rendez-vous uniquement,0323243260,0323243260,2020-09-24
eDgQf3jFSLF7cnLJ,020015087,020015129,LBM SYNLAB Nord de France GUISE,42 Rue Alfred Chollet 02120 Guise,,3.627972,49.899185,Sur place,Tout public,,,Sans rendez-vous,0323612828,,2020-09-24
4eQRMAY0dWMzKyCI,020015087,020015236,LBM SYNLAB Nord de France LAON BROSSOLETTE,113 Boulevard Pierre Brossolette 02000 Laon,,3.618742,49.569244,Sur place,Tout public,,,,0323231446,,2020-09-24
sdIvIoCgBTys4lau,020015087,020015426,LBM SYNLAB Nord de France TERGNIER,110 Boulevard Gambetta 02700 Tergnier,,3.287216,49.652518,Sur place,Tout public,,,,0323570565,,2020-09-24
iBWGHKcNgaKgJARJ,020015087,020015657,LBM SYNLAB Nord de France SOISSONS,29 Rue du College 02200 Soissons,,3.32464,49.38206,Sur place,Tout public,,,,0323595159,,2020-09-24
CVEaRpUQLyiyi3I1,020015087,020015848,LBM SYNLAB Nord de France SAINT-QUENTIN FAIDHERBE,9 AV FAIDHERBE 02100 ST QUENTIN,"Camping municipal / Auberge de jeunesse, rue Gaston Bachelard, 02100 Saint-Quentin",3.28164455433242,49.8446618361253,Drive,Tout public,,,,,,2020-09-24
xPJ6rYXuVIJ6w1Rp,020015145,020015152,LBM CORCY SOISSONS SAINT MARTIN,1 Rue Saint-martin 02200 Soissons,,3.328867,49.376744,Sur place,Tout public,,,,0323532019,,2020-09-24
5lEd5virzubT7qIU,020015145,600012637,LBM CORCY NOYON,29 Avenue Jean Jaures 60400 Noyon,,2.991533,49.575904,Sur place,Tout public,,,,0344931639,,2020-09-24
GELpPxjEtOWJyyna,020015277,020015285,LBM BIOMÉDIQUAL BEAUTOR,60 Rue de Tergnier 02800 Beautor,,3.342459,49.658617,Sur place,Tout public/Cas contacts liste CPAM/Personnel soignant/Enfants 0-3 ans/Personnes en situation de précarité/Tout public - sur ordonnance/Malades chroniques (ALD)/Femmes enceintes/Personnes en situation de handicap/Patients ayant été atteints par le COVID-19/Militaires,lundi : 8h00-12h00  | mardi : 8h00-12h00  | mercredi : 8h00-12h00  | jeudi : 8h00-12h00  | vendredi : 8h00-12h00  | samedi : pas de ramassage cerba |  | dimanche : fermé,,Sur rendez-vous uniquement,0323563468,doctolib,2020-09-24
MBGN2q5ZmuWXgYj6,020015277,600012025,LBM BIOMÉDIQUAL NOYON ZAC,Chemin de la Haye Judas 60400 Noyon,"La Haye Juda ZA du Mont Renaud, 60400 Noyon",2.981569,49.569946,Sur place,Tout public/Cas contacts liste CPAM/Personnel soignant/Enfants 0-3 ans/Femmes enceintes/Patients ayant été atteints par le COVID-19/Personnes en situation de handicap/Personnes en situation de précarité/Tout public - sur ordonnance/Malades chroniques (ALD)/Militaires,,,,0344440178,,2020-09-24
3mLQ4fQyBWNlCJnC,020015814,103700217,LBM UNILABS BIOCT BRIENNE le CHATEAU,98 Rue de l'Ecole Militaire 10500 Brienne-le-Château,Parking du laboratoire,4.526172,48.393817,Drive,Tout public,lundi : 10h-11h | mardi : 10h-11h | mercredi : 10h-11h | jeudi : 10h-11h | vendredi : 10h-11h | samedi : 10h-11h | dimanche : fermé,,Sur rendez-vous uniquement,0351255055,,2020-09-24
cnuJenkRD09DybTb,020015814,103700142,LBM UNILABS BIOCT TROYES 1er Mai,28 Avenue du Premier Mai 10000 Troyes,Parking du laboratoire,4.089293,48.304344,Drive,Tout public,lundi : 10h-13h | mardi : 10h-13h | mercredi : 10h-13h | jeudi : 10h-13h | vendredi : 10h-13h | samedi : fermé | dimanche : fermé,,Sur rendez-vous uniquement,0325721132,,2020-09-24
Xjw7LKDmXyBKlE6B,020015814,020015822,LBM UNILABS BIOCT CHÂTEAU-THIERRY,14 Avenue de l'Europe 02400 Château-Thierry,Parking,3.400699,49.037421,Sur place,Tout public,Du lundi au vendredi 13h30 | Uniquement sur Rendez vous pris préalablement. |,,Sur rendez-vous uniquement,0323695490,,2020-09-24
SYEWhU7JtEEte4yt,020015814,510021959,LBM UNILABS BIOCT REIMS MAISON BLANCHE,88 R DE LA MAISON BLANCHE 51100 REIMS,Parking du laboratoire,4.02558869053501,49.2357506476954,Sur place,Tout public,lundi : 11h00-12h30  | mardi : 11h00-12h30 | mercredi : 11h00-12h30 | jeudi : 11h00-12h30 | vendredi : 11h00-12h30 | samedi : fermé | dimanche : fermé,,Sur rendez-vous uniquement,07 84 44 55 65,Doctolib,2020-09-24
tmAG3UUCMiQwKsit,020015814,510022049,LBM UNILABS BIOCT FISMES,3 R CHAUDRU 51170 FISMES,parking du laboratoire,3.68377173044032,49.3066802644803,Drive,Tout public,lundi : 10h30-11h30 | mardi : 10h30-11h30 | mercredi : 10h30-11h30 | jeudi : 10h30-11h30 | vendredi : 10h30-11h30 | samedi : fermé | dimanche : fermé,,Sur rendez-vous uniquement,07 84 44 55 65,Doctolib,2020-09-24
X8rzMIXb4T7qNgNw,020015814,510022528,LBM UNILABS BIOCT EPERNAY CHAMPAGNE,4 AV DE CHAMPAGNE 51200 EPERNAY,Parking du laboratoire,3.95801562897226,49.0433587575026,Sur place,Tout public,lundi : 9h00-12h00  | mardi : 9h00-12h00  | mercredi : 9h00-12h00  | jeudi : 9h00-12h00  | vendredi : 9h00-12h00 | samedi : fermé | dimanche : fermé,,Sur rendez-vous uniquement,0326511717,,2020-09-24
MHh5f2N8csJef4BS,020015814,510024144,LBM UNILABS BIOCT REIMS JAURÈS,211 AV JEAN JAURES 51100 REIMS,parking du laboratoire au 211 avenue Jean Jaures,4.05369512819202,49.2627579513282,Drive,Tout public,lundi : 10h30-12h | mardi : 10h30-12h | mercredi : 10h30-12h | jeudi : 10h30-12h | vendredi : 10h30-12h | samedi : 12h30-13h30 | dimanche : fermé,,Sur rendez-vous uniquement,07 84 44 55 65,Doctolib,2020-09-24
BSpgWIbK3aMIUlLY,030006159,AUTRE,MAYMAT Saint-Pourçain IDE,Rue du Bourbonnais 03500 Saint-Pourçain-sur-Sioule,IDE Libérales CPTS Sud allier,3.281653,46.307586,Sur place,Tout public,,,,04 70  45 32 05,,2020-10-07
uIq5sGY3bduXWh0z,030006159,AUTRE,MAYMAT Lapalisse - IDE Liberales CPTS Sud allier,Place Jean Bécaud 03120 Lapalisse,MSP - Personnel soignant,3.628754,46.248931,Sur place,Tout public,,,,04 70 99 04 69,,2020-10-07
29JtSxlP0Nl9wo0l,030006159,AUTRE,Cabinet IDE,Rue les Aubrelles 03230 Beaulon,,3.678582,46.600218,Sur place,Tout public,,,,04 70 42 71 53,cabinetinfirmiersbeaulon@orange.fr,2020-10-07
6uxM7wjbTojVO7Vy,030006159,AUTRE,COVID-ROOM Moulins,Pl du Mal de Lattre de Tassigny 03000 Moulins,Salle des fêtes,3.330135,46.562209,Sur place,Tout public,,,,04 70 44 23 43,,2020-10-07
ip5w6xl4cooaUseV,030006159,AUTRE,IDE Libérales CPTS Sud allier,32 Rue du Champ Feuillet 03500 Saint-Pourcain-sur-Sioule,Pavillon Accueil de Jour,3.282162,46.304408,Sur place,Tout public,,,Sur rendez-vous uniquement,04 70 45 32 05,,2020-10-07
7e6XfC9RKMKiqcRN,030006159,030006209,LBM MAYMAT MOULINS   FOUR,4 PL DU FOUR 03000 MOULINS,,3.32971955072918,46.5649884255695,Sur place,Tout public,lundi : 14h00-18h00 | mardi : 14h00-18h00 | mercredi : 14h00-18h00 | jeudi : 14h00-18h00 | vendredi : 14h00-18h00 | samedi : 14h00-18h00 | dimanche : 14h00-18h00,,,0470448982,,2020-10-07
q2uqWyuhZ0ClDv3X,030006159,030006258,LBM MAYMAT BELLERIVE,AV DE RUSSIE 03700 BELLERIVE SUR ALLIER,,3.41032866536461,46.117667196337,Sur place,Tout public,,,,0470323583,,2020-10-07
OP6MDqSPpyFENeut,030006159,030006308,LBM MAYMAT ST POURÇAIN / SIOULE,59 BD LEDRU ROLLIN 03500 ST POURCAIN SUR SIOULE,,3.28972015952997,46.3091063598013,Sur place,Tout public,,,,0470456332,,2020-10-07
aPC5wV9Fbp4HI360,030006159,030006399,LBM MAYMAT VARENNES / ALLIER,4 PL DU CHAMP DE MARS 03150 VARENNES SUR ALLIER,,3.4047214455751,46.3119328298699,Sur place,Tout public,lundi : 14h00-18h00 | mardi : 14h00-18h00 | mercredi : 14h00-18h00 | jeudi : 14h00-18h00 | vendredi : 14h00-18h00 | samedi : fermé | dimanche : fermé,,,0470457170,,2020-10-07
VMGmCUxd3b7l0D6B,030006159,030006449,LBM MAYMAT MONTLUÇON,5 R ALBERT EINSTEIN 03100 MONTLUCON,,2.60030765545843,46.3480356529782,Sur place,Tout public,,,,0470464921,,2020-10-07
fC59wDiFTcoJA50x,030006159,580005809,LBM MAYMAT NEVERS,13 Rue de Charleville-mezieres 58000 Nevers,,3.150984,46.98854,Sur place,Tout public,,,Sur rendez-vous uniquement,03 86 57 09 18,https://www.laboratoire-ferrand-jankovic-rakover.fr/ ,2020-10-07
ZG93yPclHy8SsMlQ,030006159,630011773,LBM MAYMAT CLERMONT FD,7 PL HENRI DUNANT 63000 CLERMONT FERRAND,,3.08914728509551,45.7612727444089,Sur place,Tout public,,,,,,2020-10-07
WkKnQ4NgHGxthXTz,030006159,710013343,LBM MAYMAT NAVETAT BOURBON-LANCY,Rue Max Boirot 71140 Bourbon-Lancy,Salle annexe du Complexe Marc Goutheraud - rue Max Boirot,3.766025,46.622304,Sur place,Tout public,lundi : 11h00-16h00 | mardi : 11h00-16h00 | mercredi : 11h00-16h00 | jeudi : 11h00-16h00 | vendredi : 11h00-16h00 | samedi : fermé | dimanche : fermé,,Sans rendez-vous,03 85 89 30 60,,2020-10-07
AcCZMmlwklrs30qD,030006498,030006589,LBM SYNLAB AUVERGNE BELLERIVE DE GAULL,8 AV DU GENERAL DE GAULLE 03700 BELLERIVE SUR ALLIER,DRIVE sous le parking couvert à l'arrière du bâtiment.,3.41553110876824,46.1147000365121,Sur place,Tout public,lundi au Jeudi : 9h00-12h00 et 14h00-16h00 | vendredi : 9h00-12h00,,Sur rendez-vous uniquement,0470982110,bellerive@auvergne.synlab.fr,2020-09-24
DPjxf1xbEVvtHcBk,030006498,630015105,LBM SYNLAB AUVERGNE AUBIERE,60 Avenue de la Margeride 63170 Aubière,"DRIVE sur le parking, à l'arrière du bâtiment.",3.126569,45.757671,Sur place,Tout public,lundi  au vendredi : 9h00-12h30,,Sur rendez-vous uniquement,0473777595,aubiere@auvergne.synlab.fr,2020-09-24
FDHGDbV1ltkcVERD,030780092,030000061,CH DE MOULINS,10 AV DU GENERAL DE GAULLE 03006 MOULINS CEDEX,,3.32526416231874,46.5702948957609,Sur place,Tout public,7 jours / 7,,Sur rendez-vous uniquement,04 70 35 77 77,,2020-10-07
A15jrUVwGehUVU1w,030780100,030000079,CH DE MONTLUCON,18 AV DU 8 MAI 1945 03109 MONTLUCON CEDEX,Centre de consultation COVID  (téléphone 04 70 02 42 08  entre 09h et 16h30) sur RDV,2.60863010567439,46.3427354736228,Sur place,Tout public,sur RDV du lundi au vendredi de 09h00  à 17h00,,,04 70 02 42 08,,2020-09-24
BC0n1OLWjPj5mxAh,040001216,040001406,LABM AUBRION STRZALKOWSKI,65 BD GASSENDI 04000 DIGNE LES BAINS,,6.23474312560347,44.092645255629,Sur place,Tout public,,,,0492313169,,2020-09-24
C5RqfLIoN0N49fdq,040004376,040004400,LBM MANESQ SITE DU MANUESCA,AV DU DOCTEUR BERNARD FOUSSIER 04100 MANOSQUE,,5.80485437138227,43.8293015063378,Sur place,Tout public,,,,0492724590,,2020-09-24
eGVmIWV43tcpXffZ,050000116,050000231,CH DES ESCARTONS DE BRIANCON,24 AV ADRIEN DAURELLE 05105 BRIANCON CEDEX,,6.63299546616609,44.9072642695455,Sur place,Tout public,,,,0492252525,scr_lab@ch-brianon.fr,2020-09-24
62NZ82L18UXqH0Um,050002948,050000348,CHI DES ALPES DU SUD SITE DE GAP,1 PL AUGUSTE MURET 05007 GAP CEDEX,Drive,6.07326807225251,44.5563943446239,Sur place,Tout public - sur ordonnance/Cas contacts liste CPAM,"Du lundi au vendredi, 8h30-11h45, 13h30-16h30 | samedi et dimanche : fermé, contacter le Centre 15 en cas d'urgence | ",,Sur rendez-vous uniquement,0492407845,https://www.chicas-gap.fr/prenez-rendez-vous-en-ligne,2020-09-24
odFhjGW6ahjOM4p8,050007152,050007186,LBM ANABIO 05 SITE GAP/SAINT ROCH,6 R ROGER SABATIER 05000 GAP,,6.06479458806369,44.5482316192373,Sur place,Tout public,lundi : 8h00-12h00 et 13h30-16h30 | mardi : 8h00-12h00 et 13h30-16h30 | mercredi : 8h00-12h00 et 13h30-16h30 | jeudi : 8h00-12h00 et 13h30-16h30 | vendredi : 8h00-12h00  | samedi : fermé | dimanche : fermé,lundi : 10h30-11h30  | mardi : 10h30-11h30  | mercredi : 10h30-11h30  | jeudi : 10h30-11h30  | vendredi : 10h30-11h30 | samedi : fermé | dimanche : fermé,,,,2020-10-06
iiIaINfXWQbu2VAp,050007749,050007756,SELARL BIOMED 05 EMBRUN,LD LA CLAPIERE 05200 EMBRUN,DRIVE,6.48367753815963,44.5538380684699,Sur place,Tout public,lundi : 9h30-11h30  | mardi : 9h30-11h30 | mercredi : 9h30-11h30 | jeudi : 9h30-11h30 | vendredi : 9h30-11h30,,Sur rendez-vous uniquement,0492435072,,2020-09-24
uE0v7VVIOy0hmI7s,050007749,050007764,SELARL BIOMED 05 VEYNES,DOM DE PARASSOL 05400 VEYNES,SALLE DE PRELEVEMENT DEDIEE,5.81332159212679,44.5255174029651,Sur place,Tout public,mardi : 9h30-11h30 | jeudi : 9h30-11h30,,Sur rendez-vous uniquement,0492580734,,2020-09-24
3opWt6v1HTrs436k,060021714,AUTRE,CENTRE COVID VAUBAN,18 Rue Maréchal Vauban 06300 Nice,CITE DEDIE,7.286587,43.711572,Sur place,Tout public,lundi : 10h00-12h00 et 13h00-15h00  mardi : 10h00-12h00 et 13h00-15h00  mercredi : 10h00-12h00 et 13h00-15h00  jeudi : 10h00-12h00 et 13h00-15h00  vendredi : 10h00-12h00 et 13h00-15h00  samedi : fermé  dimanche : fermé,,Sur rendez-vous uniquement,0492004329,,2020-09-24
bMmTHoba3KGjayKs,060021714,060021722,LBM BARLA SITE BEAULIEU SUR MER/BERLUG,3 PL GENERAL DE GAULLE 06310 BEAULIEU SUR MER,,7.33032052913883,43.7074752670387,Sur place,Tout public,Tous les jours 10h00-16h00  samedi : 10h00-12h00  dimanche : fermé,,Avec ou sans rendez-vous,0493011200,www.labo-barla.eu,2020-09-24
ypek3RPswJcHoJ92,060021714,060021730,LBM BARLA SITE NICE/BARLA,6 R BARLA 06000 NICE,,7.2812835033039,43.7023140415944,Sur place,Tout public,Tous les jours 10h00-16h00  samedi : 10h00-16h00  dimanche : fermé,,Avec ou sans rendez-vous,0493554040,www.labo-barla.eu,2020-09-24
cslbXzjXiEOwhjsh,060021714,060021748,LBM BARLA SITE NICE/SAINT ROCH,41 BD LOUIS BRAILLE 06000 NICE,,7.29332522842827,43.7214440454962,Sur place,Tout public,Tous les jours 10h00-16h00  samedi : 10h00-12h00  dimanche : fermé,,Avec ou sans rendez-vous,0492005019,www.labo-barla.eu,2020-09-24
pB0GE4UqNJNAF1GO,060021714,060021755,LBM BARLA SITE NICE/LEPANTE,20 R LEPANTE 06000 NICE,,7.26949373996015,43.7050349729501,Sur place,Tout public,Tous les jours 10h00-16h00  samedi : 10h00-12h00  dimanche : fermé,,Avec ou sans rendez-vous,0493857744,www.labo-barla.eu,2020-09-24
cwa7PvhB3y8KT7cK,060021714,060021763,LBM BARLA SITE NICE/LAMSI,45 BD DUBOUCHAGE 06000 NICE,,7.26849532455174,43.7006423506732,Sur place,Tout public,Tous les jours 10h00-16h00  samedi : 10h00-12h00  dimanche : fermé,,Avec ou sans rendez-vous,0492176565,www.labo-barla.eu,2020-09-24
dJEgwFtXtH31qGKD,060021714,060022134,LBM BARLA SITE MENTON/DE LA GARE,3 AV DE LA GARE 06500 MENTON,,7.49443340816558,43.7752354148007,Sur place,Tout public,Tous les jours 10h00-16h00  samedi : 10h00-12h00  dimanche : fermé,,Avec ou sans rendez-vous,0493577979,www.labo-barla.eu,2020-09-24
VMCdk1siywthzmL0,060021714,060022142,LBM BARLA SITE CANNES LA BOCCA/FRANCIS,91 AV FRANCIS TONNER 06150 CANNES,,6.97660122473711,43.5494971596639,Sur place,Tout public,Tous les jours 10h00-16h00  samedi : 10h00-12h00 dimanche : fermé,,Avec ou sans rendez-vous,0493472412,www.labo-barla.eu,2020-09-24
KzLkf0deV5qCecor,060021714,060022159,LBM BARLA SITE ANTIBES/CAP D'ANTIBES,,,7.12509760064443,43.580423254734,Sur place,Tout public,Tous les jours 10h00-16h00 samedi : 10h00-12h00  dimanche : fermé,,Avec ou sans rendez-vous,0493000065,www.labo-barla.eu,2020-09-24
WPzKuMApWGjDiOFT,060021714,060022167,LBM BARLA SITE CANNES/LA GARE,4 PL DE LA GARE 06150 CANNES,,7.01827205311033,43.5536118852131,Sur place,Tout public,Tous les jours 10h00-16h00  samedi : 10h00-12h00  dimanche : fermé,,Avec ou sans rendez-vous,0492980042,www.labo-barla.eu,2020-09-24
7Sv2gUZ6SDowvEnJ,060021714,060022175,LBM BARLA SITE VALLAURIS/DE LA FONTAIN,AV DE L'HOPITAL VALLAURIS 06220 VALLAURIS,,7.05833014796663,43.5755285768639,Sur place,Tout public,Tous les jours 10h00-16h00  samedi : 10h00-12h00  dimanche : fermé,,Avec ou sans rendez-vous,0493645353,www.labo-barla.eu,2020-09-24
HTsytYZqRN2ozpWM,060021714,060022563,LBM BARLA SITE CAGNES SUR MER/L'EGLISE,13 R DE L EGLISE 06800 CAGNES SUR MER,,7.15116927229124,43.6625140569543,Sur place,Tout public,Tous les jours 10h00-16h00  samedi : 10h00-12h00  dimanche : fermé,,Avec ou sans rendez-vous,0393209258,www.labo-barla.eu,2020-09-24
dAO4okQ1GoLBlq0V,060021714,060022571,LBM BARLA SITE GRASSE/CARNOT,1 BD CARNOT 06130 GRASSE,,6.92373883093694,43.657123149434,Sur place,Tout public,Tous les jours 10h00-16h00  samedi : 10h00-12h00  dimanche : fermé,,Avec ou sans rendez-vous,0492607777,www.labo-barla.eu,2020-09-24
M9Xtx9YeWrQJUf7S,060021714,060022803,LBM BARLA SITE MANDELIEU LA NAPOULE,601 AV DE FREJUS 06210 MANDELIEU LA NAPOULE,,6.93202739290793,43.5428018414077,Sur place,Tout public,Tous les jours 10h00-16h00  samedi : 10h00-12h00  dimanche : fermé,,Avec ou sans rendez-vous,0492192578,www.labo-barla.eu,2020-09-24
VgiRmbwHb1T9wFE5,060021714,060022969,LBM BARLA SITE SAINT ANDRE DE LA ROCHE,7 CHE DU SOUVENIR 06730 ST ANDRE DE LA ROCHE,,7.28767722411324,43.7408843116818,Sur place,Tout public,Tous les jours 10h00-16h00  samedi : 10h00-12h00  dimanche : fermé,,Avec ou sans rendez-vous,0497000363,www.labo-barla.eu,2020-09-24
BlWctfMl9H3fTYL7,060021714,060022993,LBM BARLA SITE ST LAURENT DU VAR/CAP 3,,,7.18980580229945,43.6734218778367,Sur place,Tout public,Tous les jours 10h00-16h00  samedi : 10h00-12h00  dimanche : fermé,,Avec ou sans rendez-vous,0497191900,www.labo-barla.eu,2020-09-24
UTDPs8e79F1p0tdM,060021714,060023009,LBM BARLA SITE SITE NICE/D'ARSON,8 R D'ARSON 06000 NICE,,7.28657022038358,43.6993148849502,Sur place,Tout public,Tous les jours 10h00-16h00  samedi : 10h00-12h00  dimanche : fermé,,Avec ou sans rendez-vous,0493551122,www.labo-barla.eu,2020-09-24
lTHMbwb9xpv5uxdi,060021714,060025293,LBM BARLA SITE NICE/SANTA MARIA PLATEA,57 AV DE LA CALIFORNIE 06000 NICE,,7.24116100625842,43.6893792186242,Sur place,Tout public,Tous les jours 10h00-16h00  samedi : 10h00-12h00  dimanche : fermé,,Sur rendez-vous uniquement,0967738205,www.labo-barla.eu,2020-09-24
iuWIcvGGAkMIVH3L,060021714,830018578,LBM MAZARIN SITE SAINT ZACHARIE/SAINTE,RTE DPT 560 QUA ST ANTOINE 83640 ST ZACHARIE,,5.71036614906997,43.3874140861472,Sur place,Tout public,Tous les jours 10h00-16h00  samedi : 10h00-12h00  dimanche : fermé,,Sur rendez-vous uniquement,,,2020-09-24
JkDSH06o5zLONAhC,060021904,060005956,LBM EUROFINS LABAZUR NICE SITE PONT MICHEL,170 Route de Turin 06300 Nice,,7.290245,43.723472,Sur place,Tout public,Contacter le laboratoire. Horaires variables.,,Sur rendez-vous uniquement,0422531535,https://www.eurofins-biologie-medicale.com/,2020-09-24
9ahFDfwYA6qgCbpJ,060021904,060006103,LBM EUROFINS LABAZUR NICE SITE FELIX F,10 Avenue Félix Faure 06000 Nice,,7.273359,43.6983,Sur place,Tout public,lundi : 7h30-18h00 | mardi : 7h30-18h00 | mercredi : 7h30-18h00 | jeudi : 7h30-18h00 | vendredi : 7h30-18h00 | samedi : fermé | dimanche : fermé,,Sur rendez-vous uniquement,0493804040,https://www.eurofins-biologie-medicale.com/,2020-09-24
8qB92y5VfkkFeC3t,060021904,060006327,LBM EUROFINS LABAZUR NICE SITE CALIFOR - NICE,20 AV DE LA CALIFORNIE 06000 NICE,,7.24348244799491,43.6909268634817,Sur place,Tout public,pas de prélèvement PCR,,Sur rendez-vous uniquement,0493860029,https://www.eurofins-biologie-medicale.com/,2020-09-24
eZoCU3j948I3mIJ1,060021904,060022688,LBM EUROFINS LABAZUR NICE SITE FLORETTE,98 AV JEAN MONNET 06500 MENTON,,7.48585088582451,43.7658263298388,Sur place,Tout public,Contacter le laboratoire.,,Sur rendez-vous uniquement,0492104747,https://www.eurofins-biologie-medicale.com/,2020-09-24
tfRjIAPOowbb2oXp,060021904,060022704,LBM EUROFINS LABAZUR NICE SITE CONTES,PL DU DOCTEUR OLLIVIER 06390 CONTES,,7.31466250681739,43.8103996619401,Sur place/En EHPAD,Tout public,Contacter le laboratoire. Jours et horaires variables.,,Sur rendez-vous uniquement,0493792882,https://www.eurofins-biologie-medicale.com/,2020-09-24
SPCjqdIlYQWMJK3t,060021912,060021920,LBM BIOESTEREL SITE Mandelieu - Les Termes,405 AV DE CANNES 06210 MANDELIEU LA NAPOULE,Local dédié Rond point de l’espace « les petits princes » 06210 MANDELIEU LA NAPOULE,6.93714385825298,43.5436233806482,Sur place,Tout public,Du L. au V.: 10h-12h et 14h-17h S: 9h30-11h30,Du L. au V.: 10h-12h et 14h-17h S: 9h30-11h30,Sur RDV  sauf cas symptomatiques urgents,0493492405,https://rdv-testcovid.fr,2020-10-08
XncQfiVl3xrjhFVa,060021912,060021938,LBM BIOESTEREL SITE MANDELIEU PASERO,583 AV JANVIER PASERO 06210 MANDELIEU LA NAPOULE,Local dédié Rond point de l’espace « les petits princes »06210 MANDELIEU LA NAPOULE,6.93767549693725,43.5514622027505,Sur place,Tout public,Du L. au V.: 10h-12h et 14h-17h S: 9h30-11h30,Du L. au V.: 10h-12h et 14h-17h S: 9h30-11h30,Sur RDV  sauf cas symptomatiques urgents,0493492173,https://rdv-testcovid.fr,2020-10-08
RXyvH4GGZ8TGvkQv,060021912,060021946,LBM BIOESTEREL SITE Châteauneuf,22 PL DES PINS 06740 CHATEAUNEUF GRASSE,,6.97312119895098,43.6806525968024,Sur place/A domicile/En EHPAD,Tout public,,,Sur RDV  sauf cas symptomatiques urgents,04.93.42.71.61,https://covid19.biogroup.fr.,2020-10-08
BuhCYXjE3fELrYo6,060021912,060021953,LBM BIOESTEREL SITE ROQUEFORT LES PINS,4061 RTE DPT 2085 06330 ROQUEFORT LES PINS,,7.04932343854336,43.6667864548589,Sur place/En EHPAD,Tout public,,,Sur RDV  sauf cas symptomatiques urgents,0493776275,https://covid19.biogroup.fr,2020-10-08
aWZ7Hlf27wKXKELB,060021912,060021961,LBM BIOESTEREL SITE Saint-Martin du Var,RTE 202 QUARTIER LA DIGUE 06670 ST MARTIN DU VAR,Local dédié :Salle des plans de CARROS Place Frescolini 06510 CARROS,7.19060511108801,43.818526345915,Sur place,Tout public,Du lundi au vendredi 13h - 15h30,Du lundi au vendredi 13h - 15h30,Sur RDV  sauf cas symptomatiques urgents,Accueil 1 : 04.93.08.91.07 Accueil 2 : 04 93 08 91  83,https://rdv-testcovid.fr,2020-10-08
ajp3ifiTDGABWVi1,060021912,060021979,LBM BIOESTEREL SITE CARROS,2 R EUSIERE 06510 CARROS,Local dédié :Salle des plans de CARROS Place Frescolini 06510 CARROS,7.19262040483757,43.7729019864415,Sur place,Tout public,Du lundi au vendredi 13h - 15h30,Du lundi au vendredi 13h - 15h30,Sur RDV  sauf cas symptomatiques urgents,04 93 08 71 35,https://rdv-testcovid.fr,2020-10-08
VlKlx3tH5OFcmCl8,060021912,060021987,LBM BIOESTEREL SITE PEGOMAS,76 BD MOURACHONNE 06580 PEGOMAS,Local dédié Rond point de l’espace « les petits princes »06210 MANDELIEU LA NAPOULE,6.93009288811367,43.5937813343665,Sur place,Tout public,Du L. au V.: 10h-12h et 14h-17h S: 9h30-11h30,Du L. au V.: 10h-12h et 14h-17h S: 9h30-11h30,Sur RDV  sauf cas symptomatiques urgents,0493407485,https://rdv-testcovid.fr,2020-10-08
yCblSSWrGlc6WCqR,060021912,060021995,LBM BIOESTEREL SITE Le Cannet - Vieux Cannet,3 R DES MICHELS 06110 LE CANNET,Local dédié : Salle Recroix 730 avenue Georges Pompidou Le cannet 06110,7.01751082701573,43.5756285311075,Sur place,Tout public,Du L. au V.: 10h-12h et 14h-16h S: 9h30-11h30,Du L. au V.: 10h-12h et 14h-16h S: 9h30-11h30,Sur RDV  sauf cas symptomatiques urgents,04.93.94.78.78,https://rdv-testcovid.fr,2020-10-08
HsbKqn8mUWBBrlOU,060021912,060022001,LBM BIOESTEREL SITE ANTIBES VAUTRIN,15 AV GENERAL VAUTRIN 06160 ANTIBES,Local dédié: les espaces du Fort Carré 67 avenue du 11 Novembre 06600 ANTIBES,7.1184699982092,43.5862637536498,Sur place,Tout public,Du L. au V.: 10h-13h et 14h-17h S: 9h00-11h00,Du L. au V.: 10h-13h et 14h-17h S: 9h00-11h00,Sur RDV  sauf cas symptomatiques urgents,0493658555,https://rdv-testcovid.fr,2020-10-08
RVOlSTFp5DxtBxua,060021912,060022019,LBM BIOESTEREL SITE Biot,495 RTE DE LA MER 06410 BIOT,Local dédié: les espaces du Fort Carré 67 avenue du 11 Novembre 06600 ANTIBES,7.10306192782193,43.624668835919,Sur place,Tout public,Du L. au V.: 10h-13h et 14h-17h S: 9h00-11h00,Du L. au V.: 10h-13h et 14h-17h S: 9h00-11h00,Sur RDV  sauf cas symptomatiques urgents,04.92.91.59.20,https://rdv-testcovid.fr,2020-10-08
W9uHj8zLX71TRck8,060021912,060022027,LBM BIOESTEREL SITE CANNES OXFORD,33 BD D'OXFORD 06150 CANNES,Local dédié: 29 Boulevard de La Ferrage 06400 CANNES,7.02776022667177,43.5647249795324,En EHPAD/En étab. santé/Equipe mobile,Tout public,Du L. au V.: 10h-13h et 14h-17h S: 9h00-11h00,Du L. au V.: 10h-13h et 14h-17h S: 9h00-11h00,Sur RDV  sauf cas symptomatiques urgents,0493999625,https://rdv-testcovid.fr,2020-10-08
RKLhZ4r1SdMcqEoc,060021912,060022035,LBM BIOESTEREL SITE CANNES CARNOT,67 BD CARNOT 06150 CANNES,Local dédié: 29 Boulevard de La Ferrage 06400 CANNES,7.01668622667925,43.5596417958759,Sur place,Tout public,Du L. au V.: 10h-13h et 14h-17h S: 9h00-11h00,Du L. au V.: 10h-13h et 14h-17h S: 9h00-11h00,Sur RDV  sauf cas symptomatiques urgents,04 93 99 98 50,https://rdv-testcovid.fr,2020-10-08
DXCPRACyl0G02zSR,060021912,060022050,LBM BIOESTEREL SITE Vence - Foch,42 BD MARECHAL FOCH 06140 VENCE,Local dédié: Salle des pompiers Parking de la rousse 320 Avenue Rhin et Danube 06140 VENCE,7.10622909751795,43.7233512296802,Sur place,Tout public,Du Lundi au Vendredi  10h-11h30 |  et 14h-16h30 |,Du Lundi au Vendredi  10h-11h30 |  et 14h-16h30 |,Sur RDV  sauf cas symptomatiques urgents,04.93.58.13.42,https://rdv-testcovid.fr,2020-10-08
IeUWLpoqoRgfMl2x,060021912,060022076,LBM BIOESTEREL SITE CANNES REPUBLIQUE,40 BD DE LA REPUBLIQUE 06150 CANNES,Local dédié: 29 Boulevard de La Ferrage 06400 CANNES,7.02374847190299,43.5562278158647,Sur place,Tout public,Du L. au V.: 10h-13h et 14h-17h S: 9h00-11h00,Du L. au V.: 10h-13h et 14h-17h S: 9h00-11h00,Sur RDV  sauf cas symptomatiques urgents,0493997671,https://rdv-testcovid.fr,2020-10-08
b10KhSzsRSTnI16x,060021912,060022084,LBM BIOESTEREL SITE Mougins - L'Espérance,80 ALL DES ORMES 06250 MOUGINS,Local dédié: Ecoparc 550 chemin de Font de Currault 06250 MOUGINS,7.01346623932508,43.6108898731921,En EHPAD/En étab. santé/Equipe mobile,Tout public,Du Lundi au Vendredi : 9h-12h,Du Lundi au Vendredi : 9h-12h | Le Samedi: urgences au laboratoire sur RDV,Sur RDV  sauf cas symptomatiques urgents,04.92.28.20.00,https://rdv-testcovid.fr,2020-10-08
kjDIXr6VKKDHqDAB,060021912,060022183,LBM BIOESTEREL SITE LE CANNET ROCHEVIL,15 AV MAURICE JEAN PIERRE 06110 LE CANNET,Local dédié : Salle Recroix 730 avenue Georges PompidouLe cannet 06110,7.00623767740779,43.573759697716,Sur place/En EHPAD,Tout public,Du L. au V.: 10h-12h et 14h-16h S: 9h30-11h30,Du L. au V.: 10h-12h et 14h-16h S: 9h30-11h30,Sur RDV  sauf cas symptomatiques urgents,0493698981,https://rdv-testcovid.fr,2020-10-08
nrxrhkM0PudNHwel,060021912,060022191,LBM BIOESTEREL SITE SAINT LAURENT GENERAL LECLERC,80 AV DU GENERAL LECLERC 06700 ST LAURENT DU VAR,,7.19026035662204,43.6721860982974,A domicile/En EHPAD/Sur place,Tout public,,,Sur RDV  sauf cas symptomatiques urgents,0493319525,https://covid19.biogroup.fr,2020-10-08
uZSs8jycP7gTYeTC,060021912,060022209,LBM BIOESTEREL SITE VENCE GRAND JARDIN,PL DU GRAND JARDIN 06140 VENCE,Local dédié: Salle des pompiers Parking de la rousse320 Avenue Rhin et Danube06140 VENCE,7.11217358609514,43.7223400513269,Sur place,Tout public,Du Lundi au Vendredi  10h-11h30 |  et 14h-16h30 |,Du Lundi au Vendredi  10h-11h30 |  et 14h-16h30 |,Sur RDV  sauf cas symptomatiques urgents,0493240791,https://rdv-testcovid.fr,2020-10-08
UEciK0imJRcrALlT,060021912,060022480,LBM BIOESTEREL SITE ANTIBES SOLEAU,24 AV ROBERT SOLEAU 06160 ANTIBES,Local dédié: les espaces du Fort Carré 67 avenue du 11 Novembre 06600 ANTIBES,7.12058095519316,43.5821598487754,En EHPAD/En étab. santé/Sur place,Tout public,Du L. au V.: 10h-13h et 14h-17h S: 9h00-11h00,Du L. au V.: 10h-13h et 14h-17h S: 9h00-11h00,Sur RDV  sauf cas symptomatiques urgents,0493346656,https://rdv-testcovid.fr,2020-10-08
GL0Tw6k6CsBMYREy,060021912,060022498,LBM BIOESTEREL SITE ANTIBES 4 CHEMINS,828 CHE DES QUATRE CHEMINS 06160 ANTIBES,Local dédié: les espaces du Fort Carré 67 avenue du 11 Novembre 06600 ANTIBES,7.11382642832664,43.6031035470703,Sur place/En EHPAD/En étab. santé,Tout public,Du L. au V.: 10h-13h et 14h-17h S: 9h00-11h00,Du L. au V.: 10h-13h et 14h-17h S: 9h00-11h00,Sur RDV  sauf cas symptomatiques urgents,0492904901,https://rdv-testcovid.fr,2020-10-08
Wd2rOTZ32FJdK1WF,060021912,060022506,LBM BIOESTEREL SITE ANTIBES FOCH,8 BD FOCH 06160 ANTIBES,Local dédié: les espaces du Fort Carré 67 avenue du 11 Novembre 06600 ANTIBES,7.11941889646974,43.5791127113441,Sur place/En EHPAD,Tout public,Du L. au V.: 10h-13h et 14h-17h S: 9h00-11h00,Du L. au V.: 10h-13h et 14h-17h S: 9h00-11h00,Sur RDV  sauf cas symptomatiques urgents,0492904949,https://rdv-testcovid.fr,2020-10-08
lRzkti9LuZgk2YRA,060021912,060022605,LBM BIOESTEREL SITE FERRAGE,29 BD DE LE FERRAGE 06150 CANNES,Local dédié: 29 Boulevard de La Ferrage 06400 CANNES,7.01405456218539,43.5532617258501,Sur place/Drive/A domicile/En EHPAD,Tout public,Du L. au V.: 10h-13h et 14h-17h S: 9h00-11h00,Du L. au V.: 10h-13h et 14h-17h S: 9h00-11h00,Sur RDV  sauf cas symptomatiques urgents,0492993536,https://rdv-testcovid.fr,2020-10-08
JuFKPavsKfRQxWRO,060021912,060022613,LBM BIOESTEREL SITE Vallauris -  Tapis Vert,16 AV DU TAPIS VERT 06220 VALLAURIS,Local dédié: Barnum Parking Mac Donald’s 19 Boulevard Dr HUGO 06220 VALLAURIS,7.05746681843188,43.5772158847514,Sur place/Drive/En EHPAD/En étab. santé,Tout public,Du L. au V.: 10h-12h et 14h-16h,Du L. au V.: 10h-12h et 14h-16h,Sans rendez-vous pour les bilans préopératoires et les bilans voyageurs Sur rendez-vous dans tous les autres cas,(04) 93 64 96 00,https://covid19.biogroup.fr.,2020-10-08
HACSXb7ypnGPdOGd,060021912,060022621,LBM BIOESTEREL SITE Cannes - Ranguin,3 AV VICTOR HUGO 06150 CANNES,Local dédié : Salle Recroix 730 avenue Georges PompidouLe cannet 06110,6.96633128622442,43.5691059487681,Sur place/Drive/En EHPAD,Tout public,Du L. au V.: 10h-12h et 14h-16h S: 9h30-11h30,Du L. au V.: 10h-12h et 14h-16h S: 9h30-11h30,Sur RDV  sauf cas symptomatiques urgents,04 93 39 76 76,https://rdv-testcovid.fr,2020-10-08
FbpHOhDZrCTcRr1E,060021912,060023017,LBM BIOESTEREL SITE VALBONNE,6 PL DE LA VIGNASSE 06560 VALBONNE,DRIVE,7.00639421970959,43.6418920042607,Sur place/Drive/En EHPAD,Tout public,,,Sur RDV  sauf cas symptomatiques urgents,04.93.12.26.61,https://rdv-testcovid.fr,2020-10-08
iQli78QYJGxQnSAx,060021912,060023025,LBM BIOESTEREL SITE ANTIBES CROIX ROUGE,RTE GRASSE QUA LA CROIX ROUGE 06160 ANTIBES,Local dédié: les espaces du Fort Carré 67 avenue du 11 Novembre 06600 ANTIBES,7.08801782910399,43.6000060607429,Sur place/A domicile/En EHPAD/En étab. santé,Tout public,Du L. au V.: 10h-13h et 14h-17h S: 9h00-11h00,Du L. au V.: 10h-13h et 14h-17h S: 9h00-11h00,Sur RDV  sauf cas symptomatiques urgents,04 93 33 24 19,https://rdv-testcovid.fr,2020-10-08
WYb7SjWw3BOdNft0,060021912,060023033,LBM BIOESTEREL SITE GOLFE JUAN,76 AV DE LA LIBERTE 06220 VALLAURIS,Local dédié: Barnum Parking Mac Donald’s 19 Boulevard Dr HUGO06220 VALLAURIS,7.07224501541292,43.5678105381824,Sur place/A domicile/En EHPAD/En étab. santé,Tout public,Du L. au V.: 10h-12h et 14h-16h,Du L. au V.: 10h-12h et 14h-16h,Sur rendez-vous uniquement,04 93 63 43 44,https://covid19.biogroup.fr.,2020-10-08
Wfw7MXG5CGkwjCzf,060021912,060023041,LBM BIOESTEREL SITE JUAN LES PINS,15 AV DE L'ESTEREL LE MONTANA 06160 ANTIBES,Local dédié: les espaces du Fort Carré 67 avenue du 11 Novembre 06600 ANTIBES,7.12509760064443,43.580423254734,En EHPAD/En étab. santé,Tout public,Du L. au V.: 10h-13h et 14h-17h S: 9h00-11h00,Du L. au V.: 10h-13h et 14h-17h S: 9h00-11h00,Sur RDV  sauf cas symptomatiques urgents,04 93 61 01 01,https://rdv-testcovid.fr,2020-10-08
TtRwGBxPwQ8XokTO,060021912,060023058,LBM BIOESTEREL SITE CANNES,11 BD DE LA FERRAGE 06150 CANNES,Local dédié: 29 Boulevard de La Ferrage 06400 CANNES,7.01621959192221,43.5535951020687,Sur place/A domicile/En EHPAD/En étab. santé,Tout public,Du L. au V.: 10h-13h et 14h-17h S: 9h00-11h00,Du L. au V.: 10h-13h et 14h-17h S: 9h00-11h00,Sur RDV  sauf cas symptomatiques urgents,,https://rdv-testcovid.fr,2020-10-08
eIvKB2BTSZuJUA2A,060021912,060023066,LBM BIOESTEREL SITE Cannes - La Bocca,70 AV FRANCIS TONER 06150 CANNES,Local dédié: 29 Boulevard de La Ferrage 06400 CANNES,6.97847912380256,43.5495895551677,Sur place/Drive/En EHPAD/En étab. santé,Tout public,Du L. au V.: 10h-13h et 14h-17h S: 9h00-11h00,Du L. au V.: 10h-13h et 14h-17h S: 9h00-11h00,Sur RDV  sauf cas symptomatiques urgents,04.92.19.42.42,https://rdv-testcovid.fr,2020-10-08
ouaXkDHoTvWGAKgP,060021912,060023074,LBM BIOESTEREL SITE Le Cannet - La Palestre,350 AV POMPIDOU 06110 LE CANNET,Local dédié : Salle Recroix 730 avenue Georges PompidouLe cannet 06110,6.9869588927654,43.5698292291072,Sur place/Drive/En EHPAD,Tout public,Du L. au V.: 10h-12h et 14h-16h S: 9h30-11h30,Du L. au V.: 10h-12h et 14h-16h S: 9h30-11h30,Sur RDV  sauf cas symptomatiques urgents,04 93 46 32 32,https://rdv-testcovid.fr,2020-10-08
bG01RMWpn8OKevBS,060021912,060023082,LBM BIOESTEREL SITE LE CANNET MAURICE JEAN-PIERRE,8 AV DES ECOLES 06110 LE CANNET,Local dédié : Salle Recroix 730 avenue Georges PompidouLe cannet 06110,7.00626812799587,43.5704522494692,Sur place/A domicile/En EHPAD/En étab. santé,Tout public,Du L. au V.: 10h-12h et 14h-16h S: 9h30-11h30,Du L. au V.: 10h-12h et 14h-16h S: 9h30-11h30,Sur RDV  sauf cas symptomatiques urgents,04 93 69 10 50,https://rdv-testcovid.fr,2020-10-08
vT7N6uNhpjylH0Pg,060021912,060023090,LBM BIOESTEREL SITE LE CANNET ROOSEVELT,44 AV F ROOSEVELT 06110 LE CANNET,Local dédié : Salle Recroix 730 avenue Georges PompidouLe cannet 06110,7.00169710292057,43.5717110144512,A domicile/En EHPAD/En étab. santé/Sur place,Tout public,Du L. au V.: 10h-12h et 14h-16h S: 9h30-11h30,Du L. au V.: 10h-12h et 14h-16h S: 9h30-11h30,Sur RDV  sauf cas symptomatiques urgents,04 93 45 24 51,https://rdv-testcovid.fr,2020-10-08
JuT4G5hDXDo5TJMV,060021912,060023108,LBM BIOESTEREL SITE Val de Mougins,56 AV MARECHAL JUIN 06250 MOUGINS,Local dédié: Ecoparc 550 chemin de Font de Currault 06250 MOUGINS,6.98714192620258,43.5970810885581,Sur place/Drive/En EHPAD,Tout public,Du Lundi au Vendredi : 9h-12h,Du Lundi au Vendredi : 9h-12h,Sur RDV  sauf cas symptomatiques urgents,04.93.90.00.70,https://rdv-testcovid.fr,2020-10-08
Feqjpzo5arFkaAQt,060021912,060023116,LBM BIOESTEREL SITE ST JEANNET,2530 RTE DE VENCE - LE PEYRON 06640 ST JEANNET,Local dédié :Salle des plans de CARROS Place Frescolini 06510 CARROS,7.14441762912561,43.7452762178063,En EHPAD/Sur place,Tout public,Du lundi au vendredi 13h - 15h30,Du lundi au vendredi 13h - 15h30,Sur RDV  sauf cas symptomatiques urgents,04 92 11 01 04,https://rdv-testcovid.fr,2020-10-08
S7n1OuCJYBMbPvo8,060021912,060023124,LBM BIOESTEREL SITE CAGNES VAL FLEURI,48 CHE DU VAL FLEURI 06800 CAGNES SUR MER,DRIVE,7.17154717789199,43.6647684601722,Sur place/Drive/En EHPAD,Tout public,,,Sur RDV  sauf cas symptomatiques urgents,04.93.07.68.32,https://rdv-testcovid.fr,2020-10-08
2Mn1HtSX6oXdwvd5,060021912,060023132,LBM BIOESTEREL SITE GRASSE 4 Chemins,4 BD EMMANUEL ROUQUIER 06130 GRASSE,,6.94023663291107,43.6448629379716,A domicile/En EHPAD/En étab. santé/Sur place,Tout public,,,Sur rendez-vous uniquement,04 93 70 68 00,https://covid19.biogroup.fr.,2020-10-08
AjNzfS3aqG4Hh3PO,060021912,060023140,LBM BIOESTEREL SITE GRASSE JEU DE BALLON,27 BD DU JEU DE BALLON 06130 GRASSE,,6.92225788539084,43.6596333959496,Sur place,Tout public,,,Sur rendez-vous uniquement,04 93 36 01 59,https://covid19.biogroup.fr.,2020-10-08
gpc1OslF5XFjldyM,060021912,060023157,LBM BIOESTEREL SITE Plan de Grasse,7 AV JEAN CUMERO 06130 GRASSE,DRIVE,6.95883862463502,43.6414361880955,Sur place/Drive/En EHPAD,Tout public,,,Sur rendez-vous uniquement,04.93.40.85.85,https://covid19.biogroup.fr.,2020-10-08
As4LJHpqLvDNntta,060021912,060023165,LBM BIOESTEREL SITE MOUANS SARTOUX,351 CHE DES GOURETTES INDES BT B 06370 MOUANS SARTOUX,Local dédié: Ecoparc 550 chemin de Font de Currault 06250 MOUGINS,6.9534659598947,43.6074045452002,Sur place/En EHPAD,Tout public,Du Lundi au Vendredi : 9h-12h,Du Lundi au Vendredi : 9h-12h,Sur RDV  sauf cas symptomatiques urgents,04 93 75 73 12,https://rdv-testcovid.fr,2020-10-08
ROmufiZrrAz8UC08,060021912,060023421,LBM BIOESTEREL SITE ST ANDRE DE LA ROCHE,109 QU DE LA BANQUIERE 06730 ST ANDRE DE LA ROCHE,salle « Massena » Galerie commercialeParking MASSENA Niveau -1,7.28678018254846,43.7417352225927,A domicile/En EHPAD,Tout public,L-V: 10h-13h 14h-17h Samedi: 10h-12h,L-V: 10h-13h 14h-17h Samedi: 10h-12h,Sur RDV  sauf cas symptomatiques urgents,04 28 27 00 40,https://rdv-testcovid.fr,2020-10-08
URLkflGeTpnyR2GA,060021912,060023645,LBM BIOESTEREL SITE GRASSE CLINIQUE PALAIS,25 AV CHIRIS 06130 GRASSE,,6.92959156170774,43.6573882483459,En EHPAD/En étab. santé,Tout public,,,Sur rendez-vous uniquement,04 93 09 79 90,https://covid19.biogroup.fr.,2020-10-08
e4yBW5qIRWEbJOiA,060021912,060023652,LBM BIOESTEREL SITE PEYMEINADE,39 AV DE BOUTINY 06530 PEYMEINADE,DRIVE,6.88157986004857,43.6432978464446,Sur place/Drive/En EHPAD,Tout public,,,Sur RDV  sauf cas symptomatiques urgents,04.93.66.41.10,https://covid19.biogroup.fr.,2020-10-08
8z0jTlnpNnkXamo9,060021912,060023710,LBM BIOESTEREL SITE NICE LYAUTEY,145 AV DU MARECHAL LYAUTEY 06000 NICE,salle « Massena » Galerie commercialeParking MASSENA Niveau -1,7.28456012452074,43.7201648707755,Sur place/Drive/En EHPAD/En étab. santé,Tout public,L-V: 10h-13h 14h-17h Samedi: 10h-12h,L-V: 10h-13h 14h-17h Samedi: 10h-12h,Sur RDV  sauf cas symptomatiques urgents,04.93.80.20.00,https://rdv-testcovid.fr,2020-10-08
H6PvkYR5UwujdVCi,060021912,060023728,LBM BIOESTEREL SITE NICE REPUBLIQUE,32 AV DE LA REPUBLIQUE 06000 NICE,salle « Massena » Galerie commercialeParking MASSENA Niveau -1,7.28181393560889,43.7038917968063,A domicile/En EHPAD/Sur place,Tout public,L-V: 10h-13h 14h-17h Samedi: 10h-12h,L-V: 10h-13h 14h-17h Samedi: 10h-12h,Sur RDV  sauf cas symptomatiques urgents,04 93 89 48 48,https://rdv-testcovid.fr,2020-10-08
lgCjZUpNoeenEomx,060021912,060023736,LBM BIOESTEREL SITE Villefranche-sur-Mer,9 R ALBERT 1ER 06230 VILLEFRANCHE SUR MER,salle « Massena » Galerie commercialeParking MASSENA Niveau -1,7.30909179218144,43.7034738743651,Sur place/Drive/En EHPAD,Tout public,L-V: 10h-13h 14h-17h Samedi: 10h-12h,L-V: 10h-13h 14h-17h Samedi: 10h-12h,Sur RDV  sauf cas symptomatiques urgents,04.93.01.88.66,https://rdv-testcovid.fr,2020-10-08
icALsHx9WLNVrQuE,060021912,060023744,LBM BIOESTEREL SITE NICE L'ARIANE,75 BD DE L'ARIANE 06000 NICE,salle « Massena » Galerie commercialeParking MASSENA Niveau -1,7.29845466289183,43.7349411314475,Sur place/Drive/En EHPAD,Tout public,L-V: 10h-13h 14h-17h Samedi: 10h-12h,L-V: 10h-13h 14h-17h Samedi: 10h-12h,Sur RDV  sauf cas symptomatiques urgents,04.93.54.93.93,https://rdv-testcovid.fr,2020-10-08
v4Ct4x2Z5jv9Luxm,060021912,060023769,LBM BIOESTEREL SITE CAGNES SUR MER,34 BD MARECHAL JUIN 06800 CAGNES SUR MER,,7.15076839994538,43.6586783012604,A domicile/En EHPAD/En étab. santé,Tout public,,,Sur RDV  sauf cas symptomatiques urgents,0493224682,https://covid19.biogroup.fr.,2020-10-08
ol6B2V19OQDo0O6s,060021912,060023892,LBM BIOESTEREL SITE VILLENEUVE LOUBET,51 CHE DU PAS DE BONNE-HEURE 06270 VILLENEUVE LOUBET,,7.1232886423386,43.6573674287135,Sur place/En EHPAD,Tout public,,,Sur RDV  sauf cas symptomatiques urgents,0493225810,https://covid19.biogroup.fr.,2020-10-08
VKnkofQfUjJGLzck,060021912,060023900,LBM BIOESTEREL SITE LA COLLE SUR LOUP,250 AV DE VERDUN 06480 LA COLLE SUR LOUP,,7.10445840616754,43.6890395775539,En EHPAD/Sur place,Tout public,,,Sur rendez-vous uniquement,0493325438,https://covid19.biogroup.fr.,2020-10-08
jUQNwIU8TpqV09Uj,060021912,060024122,LBM BIOESTEREL SITE NICE ST MARGUERITE,185 AV STE  MARGUERITE 06000 NICE,salle « Massena » Galerie commercialeParking MASSENA Niveau -1,7.20596894356989,43.6816138403758,Sur place/Drive/En EHPAD,Tout public,L-V: 10h-13h 14h-17h Samedi: 10h-12h,L-V: 10h-13h 14h-17h Samedi: 10h-12h,Sur RDV  sauf cas symptomatiques urgents,04.93.72.06.16,https://rdv-testcovid.fr,2020-10-08
epiNoMDCWawGJyaR,060021912,060024379,LBM BIOESTEREL SITE NICE JEAN JAURES,24 BD JEAN JAURES 06000 NICE,salle « Massena » Galerie commercialeParking MASSENA Niveau -1,7.27630138047472,43.6982089231518,Sur place,Tout public,L-V: 10h-13h 14h-17h Samedi: 10h-12h,L-V: 10h-13h 14h-17h Samedi: 10h-12h,Sur RDV  sauf cas symptomatiques urgents,,https://rdv-testcovid.fr,2020-10-08
nfGKw4cJokubJmXg,060021912,060024726,LBM BIOESTEREL SITE Nice - La Fontaine,10 PL DES FONTAINES DU TEMPLE 06000 NICE,salle « Massena » Galerie commercialeParking MASSENA Niveau -1,7.25377268462848,43.7245029563947,Sur place/Drive/En EHPAD,Tout public,L-V: 10h-13h 14h-17h Samedi: 10h-12h,L-V: 10h-13h 14h-17h Samedi: 10h-12h,Sur RDV  sauf cas symptomatiques urgents,04.93.84.11.62,https://rdv-testcovid.fr,2020-10-08
QJ64Hqd6xacf4MYX,060021912,830018339,LBM BIOESTEREL SITE DRAGUIGNAN CLEMENCEAU,19 BD CLEMENCEAU 83300 DRAGUIGNAN,,6.46517053490847,43.5361053478234,Sur place/En EHPAD/En étab. santé,Tout public,,,Sur RDV  sauf cas symptomatiques urgents,0494509659,https://rdv-testcovid.fr,2020-10-08
yOeG0N9eljqDZzOS,060021912,830018347,LBM BIOESTEREL SITE FREJUS TASSIGNY,1637 AV DE LATTRE DE TASSIGNY 83370 FREJUS,,6.76235011036451,43.4291130296492,En EHPAD/Sur place,Tout public,,,Sur RDV  sauf cas symptomatiques urgents,0494512912,https://rdv-testcovid.fr,2020-10-08
m6qJHCWrkYUyblUk,060021912,830018354,LBM BIOESTEREL SITE Draguignan - Notre Dame,345 AV BROSSOLETTE 83300 DRAGUIGNAN,,6.45235104381849,43.5331045141883,Sur place/A domicile/En EHPAD/En étab. santé,Tout public,,,Sur RDV  sauf cas symptomatiques urgents,04.94.67.46.69,https://rdv-testcovid.fr,2020-10-08
unlNo5Si0zVq6SYm,060021912,830018362,LBM BIOESTEREL SITE LORGUES,ZONE LE VERGER DES FERRAGES 83510 LORGUES,,6.35903186898048,43.4914316002745,En EHPAD/Sur place,Tout public,,,Sur RDV  sauf cas symptomatiques urgents,0494604777,https://rdv-testcovid.fr,2020-10-08
rW0JkE6Qw48AuLIE,060021912,830018370,LBM BIOESTEREL SITE SAINT AYGULF EMERAUDE,164 AV LUCIEN BOEUF 83370 FREJUS,,6.72210559972784,43.3829602359177,A domicile/En EHPAD,Tout public,,,Sur RDV  sauf cas symptomatiques urgents,0494817202,https://rdv-testcovid.fr,2020-10-08
HweCqdRqSb3nAkm5,060021912,830018388,LBM BIOESTEREL SITE SALERNES,21 R JEAN JACQUES ROUSSEAU 83690 SALERNES,DRIVE,6.23050690124801,43.5647421109482,Drive/Sur place/A domicile/En EHPAD/En étab. santé,Tout public,,,Sur RDV  sauf cas symptomatiques urgents,04.94.60.47.80,https://rdv-testcovid.fr,2020-10-08
c32RfhNHB8fkKjt7,060021912,830018396,LBM BIOESTEREL SITE Saint-Raphaël - Valescure,265 AV DE VALESCURE 83530 ST RAPHAEL,DRIVE,6.77138390092644,43.4277359059066,Sur place/Drive/En EHPAD/En étab. santé,Tout public,,,Sur RDV  sauf cas symptomatiques urgents,04.98.11.02.40,https://rdv-testcovid.fr,2020-10-08
A7tFum0Z40wn7MoP,060021912,830018404,LBM BIOESTEREL SITE ST RAPHAEL EPSILON,LOT EPSILON II 83530 ST RAPHAEL,,6.76836885842198,43.4251947052683,A domicile/En EHPAD/En étab. santé,Tout public,,,Sur RDV  sauf cas symptomatiques urgents,,https://rdv-testcovid.fr,2020-10-08
NyHSwa1zCo0FZPtk,060021912,830018412,LBM BIOESTEREL SITE Fréjus - Millenium,1373 AV DE PROVENCE 83370 FREJUS,DRIVE,6.75321408836504,43.4269415844451,Sur place/Drive/En EHPAD/En étab. santé,Tout public,,,Sur RDV  sauf cas symptomatiques urgents,04 94 51 13 76,https://rdv-testcovid.fr,2020-10-08
rfrhMknVNSy0agO3,060021912,830019758,LBM BIOESTEREL SITE FREJUS ARISTIDE BRIAND,47 R ARISTIDE BRIAND 83370 FREJUS,,6.73808748143246,43.4323276273642,Sur place/En EHPAD,Tout public,,,Sur RDV  sauf cas symptomatiques urgents,,https://rdv-testcovid.fr,2020-10-08
sh7Flkhzgm73tHwp,060021912,830019766,LBM BIOESTEREL SITE ST RAPHAEL MARTIN,51 BD FELIX MARTIN 83530 ST RAPHAEL,,6.76755402376418,43.4233388524564,Sur place/En EHPAD/En étab. santé,Tout public,,,Sur RDV  sauf cas symptomatiques urgents,,https://rdv-testcovid.fr,2020-10-08
URt8bJsiLWacuJxX,060021912,830019774,LBM BIOESTEREL SITE ROQUEBRUNE SUR ARGENS,2 LOT SAINT PIERRE 83380 ROQUEBRUNE SUR ARGENS,,6.64319262276725,43.4445431859018,A domicile/En EHPAD/En étab. santé/Sur place,Tout public,,,Sur rendez-vous uniquementSur RDV  sauf cas symptomatiques urgents,,https://rdv-testcovid.fr,2020-10-08
zVu4tsFYGdg7dIYI,060021912,830020137,LBM BIOESTEREL SITE Hyères - La Gare,45 AV EDITH CAWELL 83400 HYERES,DRIVE,6.12476969959485,43.1093074429108,Drive/Sur place/En EHPAD/A domicile/En étab. santé,Tout public,,,Sur rendez-vous uniquement,04.94.27.84.85,https://covid19.biogroup.fr.,2020-10-08
Y2DPIQhT6M0oWCLO,060021912,830020145,LBM BIOESTEREL SITE LA LONDE,81 BD AZAN LES ROMARINS 83250 LA LONDE LES MAURES,DRIVE,6.26775016994007,43.1669708257116,Drive/Sur place/A domicile/En EHPAD/En étab. santé,Tout public,,,Sur RDV  sauf cas symptomatiques urgents,04.94.66.88.26,https://rdv-testcovid.fr,2020-10-08
6ZwRhp0FSUmI2y8Z,060021912,830020152,LBM BIOESTEREL SITE CAVALAIRE,AV DES ALLIES LE CADUCEE 83240 CAVALAIRE SUR MER,DRIVE,6.52817131209046,43.1712818322832,Sur place/Drive/En EHPAD/En étab. santé,Tout public,,,Sur rendez-vous uniquement,04.94.64.00.98,https://covid19.biogroup.fr.,2020-10-08
aMepEWzc0v1sZzXr,060021912,830020160,LBM BIOESTEREL SITE LA CROIX VALMER,R LOUIS MARTIN 83420 LA CROIX VALMER,,6.56830492812689,43.2080346340645,A domicile/En EHPAD/En étab. santé,Tout public,,,Sur rendez-vous uniquement,,https://covid19.biogroup.fr.,2020-10-08
tilZBCbExfNggjGn,060021912,830020186,LBM BIOESTEREL SITE LE PRADET,127 AV DE LA 1ERE DFL 83220 LE PRADET,,6.02056373762525,43.1066308915387,A domicile/En EHPAD/En étab. santé,Tout public,,,Sur rendez-vous uniquement,,https://covid19.biogroup.fr.,2020-10-08
z9N0s6Nh9IJW69aq,060021912,830020194,LBM BIOESTEREL SITE TOULON ROOSEVELT,185 AV FRANKLIN ROOSEVELT 83000 TOULON,,5.93931487722909,43.1200158497177,A domicile/En EHPAD,Tout public,,,Sur rendez-vous uniquement,,https://covid19.biogroup.fr.,2020-10-08
kZSPoBMXfhclLoeT,060021912,830020251,LBM BIOESTEREL SITE PUGET SUR ARGENS,569 R DU GENERAL DE GAULLE 83480 PUGET SUR ARGENS,,6.69041225305181,43.4530928587874,Sur place/En EHPAD/En étab. santé,Tout public,,,Sur rendez-vous uniquement,0494815122,https://covid19.biogroup.fr.,2020-10-08
AykSZJ5W8KGcxynG,060021912,830020269,LBM BIOESTEREL SITE LES ARCS,8 PL DE LA LIBERATION 83460 LES ARCS,,6.47544717981513,43.4488051386986,A domicile/En EHPAD/En étab. santé/Sur place,Tout public,,,Sur rendez-vous uniquement,0494474871,https://covid19.biogroup.fr.,2020-10-08
v7B0lFqqXrAfkDUw,060021912,830020707,LBM BIOESTEREL SITE TOULON BAZEILLES,285 BD BAZEILLES 83000 TOULON,,5.93720271874774,43.1118640388512,A domicile/En EHPAD/Sur place,Tout public,,,Sur rendez-vous uniquement,0494415820,https://covid19.biogroup.fr.,2020-10-08
dleJjwxYZzkvuw5C,060021912,830021325,LBM BIOESTEREL SITE LE MUY LIBERATION,1170 BD DE LA LIBERATION 83490 LE MUY,,6.57056498763783,43.4742329573464,Sur place/A domicile/En EHPAD/En étab. santé,Tout public,,,Sur rendez-vous uniquement,04 94 55 16 20,https://covid19.biogroup.fr.,2020-10-08
iFfOLOX2w6XQAm1J,060021912,830024253,LBM BIOESTEREL SITE TOULON PICOT,1208 AV DU COLONEL PICOT 83000 TOULON,,5.97002967596584,43.1298727410118,A domicile/En EHPAD/En étab. santé,Tout public,,,Sur rendez-vous uniquement,04 94 41 95 70,https://covid19.biogroup.fr.,2020-10-08
RB5XkIgkpr0Qtsx1,060021912,830025094,LBM BIOESTEREL SITE LA VALETTE PAUL VALERY,32 Avenue Paul Valery 83160 La Valette-du-Var,,5.990986,43.130123,Sur place/A domicile/En EHPAD/En étab. santé,Tout public,,,Sur rendez-vous uniquement,0497066261,https://covid19.biogroup.fr.,2020-10-08
aKDIGy58XHtHEiXN,080010077,AUTRE,Maison de Santé de Douzy,76 Route Nationale 08140 Douzy,Maison de Santé,5.036886,49.671237,Sur place,Tout public,pas de jour fixe : selon les créneaux ouverts,,Sur rendez-vous uniquement,0972760168,,2020-09-25
YI5qFyuAir6kKHlL,080010077,AUTRE,Maison de Santé de Carignan,23 Avenue de Blagny 08110 Carignan,Maison de Santé,5.170132,49.629496,Sur place,Tout public,lundi : 11h30-13h30 | mardi : 11h30-13h30 | mercredi : 11h30-13h30 | jeudi : 11h30-13h30 | vendredi : 11h30-13h30,,Sur rendez-vous uniquement,0972760168,,2020-09-25
1RHTM5VlPTS7BTWu,080010077,AUTRE,Maison de Santé de Rimogne,733 Rue Pasteur 08150 Rimogne,Maison de Santé,4.52971,49.843041,Sur place,Tout public,lundi : 12h30-13h30 | mercredi : 12h30-13h30 | vendredi : 12h30-13h30 |,,Sur rendez-vous uniquement,0972760168,,2020-09-25
j0HmZ37i9NzoLeZh,080010077,AUTRE,Maison de Santé d'Asfeld,2 Rue du Docteur Landes 08190 Asfeld,Maison de Santé,4.110414,49.462426,Sur place,Tout public,du lundi au vendredi de 10h15 à 11h. |,,Sur rendez-vous uniquement,0972760168,,2020-09-25
ZIBHjdPlaXJGODrL,080010077,AUTRE,Maison de Santé de Rocroi,25 Rue Royale 08230 Rocroi,Maison de Santé,4.529436,49.930231,Sur place,Tout public,mardi : 13h00-15h00 | jeudi : 13h00-15h00 |,,Sur rendez-vous uniquement,0972760168,,2020-09-25
QC9NYe94chPYfVfv,080010077,AUTRE,EQUIPE MOBILE DE PRELEVEMENT DEPARTEMENTALE,,au domicile dans l’incapacité de se déplacer ou dépendant,,,Sur place,Tout public,à la demande,,Sur rendez-vous uniquement,0634091449,,2020-09-25
w44Rnm3xd4ojpCR7,080010077,080010085,LBM BIO ARD'AISNE  SITE RETHEL,R ANTOINE SAINT EXUPERY 08300 RETHEL,Drive sur le parking,4.37157563265413,49.5070652884481,Drive/Sur place,Tout public,"tous les après-midi en semaine de 14h00 à 16H00. |  | Prélèvement de bilans préopératoire tous les jours de 9h30 à 11h.  |  | Le samedi, de 09h30 à 11h.","tous les après-midi en semaine de 14h00 à 16H00. |  | Prélèvement de bilans préopératoire tous les jours de 9h30 à 11h.  |  | Le samedi, de 09h30 à 11h.",Sur rendez-vous uniquement,0351254971,https://www.ubiclic.com/autre/rethel/drive-prelevement-bio-ard-aisne-rethel,2020-09-25
q6AX2guwGoxnjSsU,080010077,080010093,LBM BIO ARD'AISNE  SITE CHARLEVILLE MEZIERES,131 AV CARNOT 08000 CHARLEVILLE MEZIERES,Drive sur le parking,4.72494883832109,49.7489955517396,Drive/Sur place,Tout public,"tous les après-midi de 13h45 à 16h en semaine. Le samedi, 9h30-11h15.","tous les après-midi de 13h45 à 16h en semaine. Le samedi, 9h30-11h15.",Sur rendez-vous uniquement,0351254969,https://www.ubiclic.com/autre/charleville-mezieres/drive-prelevement-bio-charleville-carnot,2020-09-25
IBDLf9pXVgzTzvBv,080010077,080010101,LBM BIO ARD'AISNE  SITE CHARLEVILLE MEZIERES,7 R DUBOIS CRANCE 08000 CHARLEVILLE MEZIERES,Dans le laboratoire,4.71568883252963,49.7721784304291,Sur place,Tout public,du lundi au vendredi de 10h à 12h. Site réservé aux bilans préopératoires et aux bilans avant voyages.,,Sur rendez-vous uniquement,0351254969,,2020-09-25
JDPVc6bpK1DwxhtD,080010077,080010127,LBM GIVET,Esplanade Aime et Jules Rivir 08600 Givet,Drive sur le parking,4.81847,50.140039,Sur place/Drive,Tout public,lundi : 11h30-12h30 | mardi :11h30-12h30 | mercredi : 11h30-12h30 | jeudi : 11h30-12h30 | vendredi : 11h30-12h30,lundi : 11h30-12h30 | mardi :11h30-12h30 | mercredi : 11h30-12h30 | jeudi : 11h30-12h30 | vendredi : 11h30-12h30,Sur rendez-vous uniquement,0351254974,,2020-09-25
eaV2irfPkbVY6Yqm,080010077,080010143,LBM BALAN,109 Avenue Charles de Gaulle 08200 Balan,Drive sur le parking,4.966983,49.688162,Sur place,Tout public,du lundi au vendredi de 10h à 11h30 sur rendez-vous.,du lundi au vendredi de 10h à 11h30 sur rendez-vous.,Sur rendez-vous uniquement,0351254973,,2020-09-25
GWP2NGMZ21F0LzTX,080010077,080010507,LBM VOUZIERS,25 R GAMBETTA 08400 VOUZIERS,Drive piéton,4.69991752264466,49.3958802551442,Sur place/Drive,Tout public,"lundi, mardi, jeudi et vendredi de 9h45 à 11h30 | en dehors de ces plages, merci de vous rapprocher du laboratoire de Rethel.","lundi, mardi, jeudi et vendredi de 9h45 à 11h30 | en dehors de ces plages, merci de vous rapprocher du laboratoire de Rethel.",Sur rendez-vous uniquement,0351254972,,2020-09-25
aQrUeDLaVQhLrqyT,080010077,510023518,LBM REIMS LUTON,7 Rue de Neufchatel 51100 Reims,"Drive dans la rue de Neufchâtel (du 1 au 7 rue de Neufchâtel), le long du laboratoire situé au 81 Place Luton Reims",4.026113,49.271145,Drive/Sur place,Tout public,Du lundi au vendredi de 08h à 11h30 et de 14h30 à 18h. | Le samedi de 8h à 11h30.,Du lundi au vendredi de 08h à 11h30 et de 14h30 à 18h. | Le samedi de 8h à 11h30.,Sur rendez-vous uniquement,0351254970,,2020-09-25
WRUcT7YRtQl4cjXJ,080011174,080000425,CH CHARLEVILLE - HOPITAL MANCHESTER,45 AV DE MANCHESTER 08011 CHARLEVILLE MEZIERES CEDEX,,4.69511813853849,49.7616857412433,Sur place,Tout public,lundi : 9h00 - 14h00 | mardi : 9h00 - 14h00 | mercredi : 9h00 - 14h00 | jeudi : 9h00 - 14h00 | vendredi : 9h00 - 14h00 | samedi :9h00 - 14h00 | dimanche : 9h00 - 14h00,,,,,2020-09-24
b1ghGNbLRgWs3pEN,090003195,090003203,LBM ARIEGE BIOLOGIE MEDICALE ST-GIRONS,16 AV HENRI BERNERE 09200 ST GIRONS,DRIVE,1.14360347771321,42.9871261091609,Drive/Sur place,Tout public,Sur rendez vous à 10h30 du lundi au vendredi,,Sur rendez-vous uniquement,0561662118,,2020-09-24
xBfT5HXsQlNXDZwj,090003195,090003211,LBM ARIEGE BIOLOGIE MEDICALE PAMIERS,8 R SAINT VINCENT 09100 PAMIERS,DRIVE,1.60715438850831,43.1127148684673,Drive/Sur place,Tout public,Sur rendez vous à 11h30 du lundi au vendredi,,Sur rendez-vous uniquement,0561671401,,2020-09-24
0iv8eFlix64Y66hW,090003278,090003286,GCS BIOLOGIE TERRITOIRE DE L ARIEGE - FOIX,09000 FOIX,urgences,1.6052418748859,42.9641109387251,Sur place,Tout public,lundi : 8h00-12h00 et 14h00-19h00 | mardi : 8h00-12h00 et 14h00-19h00 | mercredi : 8h00-12h00 et 14h00-19h00 | jeudi : 8h00-12h00 et 14h00-19h00 | vendredi : 8h00-12h00 et 14h00-19h00 | samedi : 8h00-12h00 | dimanche : fermé,,24/24 aux urgences du chiva,,,2020-09-24
IltT9L672CWMoZqe,090003278,090003294,GCS BIOLOGIE TERRITOIRE DE L ARIEGE - ST GIRONS,09201 ST GIRONS CEDEX,urgences,1.14609274721,42.9828555580486,Sur place,Tout public,,,24/24 aux urgences du CHAC,0561962811,,2020-09-24
woOjuTyBxTHeIm7E,090781774,090000175,CHIVAL SITE FOIX,CHE DU BARRAU 09000 FOIX,Service des urgences et autres services,1.6052418748859,42.9641109387251,Sur place,Tout public,,,,05 61 03 31 00,,2020-10-07
nSHSrR4vgJrCeWhB,100009521,100009547,LBM DYNALAB  SITE TROYES,2 Avenue des Lombards 10000 Troyes,"A côté Hopital de Troyes, au rond point entre l'avenue anatole France et l'avenue des lombards",4.0671,48.278016,Sur place,Tout public,lundi : 14h -16h30 | mardi : 14h -16h30 | mercredi : 14h -16h30 | jeudi : 14h -16h30 | vendredi : 14h -16h30 |,lundi : 14h00-16h00 | mardi : 14h00-16h00 | mercredi : 14h00-16h00 | jeudi : 14h00-16h00 | vendredi : 14h00-16h00 |  | ,Sur rendez vous uniquement,03 25 43 42 30,https://www.doctolib.fr/laboratoire/troyes/dynalab-troyes?pid=practice-27117,2020-09-27
UbbesisyRgwiOBa5,100009521,AUTRE,CENTRE SANTE CHAPELAIN,42 Avenue Jean Moulin 10600 La Chapelle-Saint-Luc,,4.035374,48.308588,Sur place,Tout public,,,Sur rendez vous uniquement,03 25 71 70 63,,2020-09-27
5ARp1nowio23wL0r,100009521,AUTRE,IDE LIBERAUX,1 Place Georges Clemenceau 10370 Villenauxe-la-Grande,,3.553385,48.589495,Sur place,Tout public,mercredi : 14h00-16h00 |,,Sur rendez vous uniquement,06 08 16 05 52 ou 03 25 24 17 15,,2020-09-27
7pXFfJbfA9ghUtjr,100009521,AUTRE,IDE LIBERAUX,1 Place Georges Clemenceau 10370 Villenauxe-la-Grande,,3.553385,48.589495,Sur place,Tout public,jeudi : 14h00-17h00 |,,Sur rendez-vous uniquement,03 25 21 52 40,,2020-09-27
8Qu335dFAJoWf4J1,100009521,AUTRE,IDE LIBERAUX,6 bis Rue du Stade 10110 Bar-sur-Seine,,4.373033,48.120063,Sur place,Tout public,lundi-mercredi-vendredi de 13h à 15h15,,Sur rendez-vous uniquement,03 25 29 82 41,,2020-09-27
BNIjDWmJWNjWjIjA,100009521,AUTRE,IDE LIBERAUX,Rue Docteur Georgel 10160 Aix-Villemaur-Pâlis,,3.740198,48.222348,Sur place,Tout public,du lundi au vendredi de 14h à 16h,,Sur rendez-vous uniquement,06 62 22 13 47,,2020-09-27
I9hYumbpBRYdT73Y,100009521,AUTRE,IDE LIBERAUX,1 Avenue de la République 10140 Vendeuvre-sur-Barse,,4.485879,48.238526,Sur place,Tout public,sur RDV,,Sur rendez-vous uniquement,0325731417,,2020-09-27
NZEKmgOGHxeKqFsm,100009521,AUTRE,IDE LIBERAUX,"1 avenue de la Republique, 10140 Vendeuvre sur barse",,4.70215,48.235536,Sur place,Tout public,les lundi-mercredi-vendredi de 14h a 16h,,Sur rendez-vous uniquement,03 25 43 84 35,,2020-09-27
kLJj1VKu92dnrIlJ,100009521,AUTRE,IDE LIBERAUX,14 Rue Jean Moulin 10100 Romilly-sur-Seine,,3.721256,48.516425,Sur place,Tout public,sur RDV,,Sur rendez-vous uniquement,07 49 44 70 47,,2020-09-27
D8tJu22CgryclD0s,100009521,AUTRE,IDE LIBERAUX,21 Rue du Canal Terray 10400 Nogent-sur-Seine,,3.4897,48.485708,Sur place,Tout public,mardi mercredi et jeudi de 14h à 18h,,Sur rendez-vous uniquement,07 86 99 74 02,,2020-09-27
xy680z3wlSaNaEdZ,100009521,AUTRE,IDE LIBERAUX,Rue Georges Flizot 10170 Méry-sur-Seine,,3.902366,48.511734,Sur place,Tout public,mardi et jeudi de 9h à 10h30 | vendredi 22 mai 9h-10h30,,Sur rendez-vous uniquement,06 35 58 07 96,,2020-09-27
kDCHacD0Dknp4DEA,100009521,AUTRE,IDE LIBERAUX,1 Place Georges Clemenceau 10370 Villenauxe-la-Grande,,3.553385,48.589495,Sur place,Tout public,mercredi de 10h à 12h,,Sur rendez-vous uniquement,03 25 25 78 49,,2020-09-27
0ie7cRlxxJAreXwW,100009521,100009455,LBM  DYNALAB,23 R DE L'HOTEL DIEU 10400 NOGENT SUR SEINE,,3.50058470536928,48.4934196262158,Sur place,Tout public,lundi : prélèvement Covid de 14h00-16h00 | mardi : prélèvement Covid de 14h00-16h00 | mercredi: pas de prélèvement | jeudi : prélèvement Covid de 14h00-16h00 | vendredi : prélèvement Covid de 14h00-16h00 | samedi : pas de prélèvement Covid | dimanche : fermé,,Sur rendez-vous uniquement,0325390298,,2020-09-27
xLGcE1IyurH0POPL,100009521,100009539,LBM DYNALAB  SITE ROMILLY SUR SEINE,51 R CARNOT 10100 ROMILLY SUR SEINE,,3.72960190813373,48.5150708810154,Sur place,Tout public,,,Sur rendez-vous uniquement,0325396726,,2020-09-27
PRwdaWcOEx9eQ8Ru,100009521,100009562,LBM DYNALAB  SITE BAR SUR AUBE,,,4.70274215167445,48.2360657672453,Sur place,Tout public,,,Sur rendez-vous uniquement,0325923980,,2020-09-27
xG1fFftOEGpLm0zT,100009711,100009729,LBM BIOLINE UNILABS  SITE TROYES,28 AV DU 1ER MAI 10000 TROYES,,4.08929332594268,48.3043432996935,Sur place,Tout public,lundi : 10h00-13h00 | mardi : 10h00-13h00 | mercredi : 10h00-13h00 | jeudi : 10h00-13h00 | vendredi : 10h00-13h00 | samedi : pas de prélèvements COVID | dimanche : fermé,,Sur rendez-vous uniquement,0325721132,,2020-09-24
D1ajQcmaBvj93hku,100009711,100009737,LBM BIOLINE UNILABS  SITE LA CHAPELLE ST LUC,5 R ROGER SALENGRO 10600 LA CHAPELLE ST LUC,,4.05107323557746,48.3113006533781,Sur place,Tout public,,,Sur rendez-vous uniquement,,,2020-09-24
aeu5kqfW3Zocy33h,100009711,100009745,LBM BIOLINE UNILABS  SITE STE SAVINE,142 AV GALLIENI 10300 STE SAVINE,,4.04778488798263,48.2931411397465,Sur place,Tout public,,,Sur rendez-vous uniquement,,,2020-09-24
zcJlnJVrP3HPBBOa,100009711,100010727,LBM BIOLINE UNILABS BRIENNE,98 R DE L'ECOLE MILITAIRE 10500 BRIENNE LE CHATEAU,,4.5261717943116,48.3938168556489,Sur place,Tout public,lundi : 10h00-11h00 | mardi : 10h00-11h00 | mercredi : 10h00-11h00 | jeudi : 10h00-11h00 | vendredi : 10h00-11h00 | samedi : variable (contacter le labo) | dimanche : fermé,,Sur rendez-vous uniquement,0351255055,,2020-09-24
bmetANNLtKrkT4Rs,110005634,090002973,LBM CERBALLIANCE LANGUEDOC LAVELANET,24 AV DR BERDANAC 09300 LAVELANET,DRIVE,1.85148185238259,42.9376390913903,Drive/Sur place,Tout public,lundi : 14h00-17h00 | mardi : 14h00-17h00 | mercredi : 14h00-17h00 | jeudi : 14h00-17h00 | vendredi : 14h00-17h00 | samedi : 11h00-12h00 | dimanche : fermé,,Sur rendez-vous uniquement,0534090090,,2020-09-24
mbaYD9uE6RO5ndqa,110005634,110005642,LBM CERBALLIANCE LANGUEDOC  QUILLAN,6 PL SALENGRO 11500 QUILLAN,DRIVE,2.18091560028569,42.8737741965715,Drive/Sur place,Tout public,lundi : 10h00-12h00 | mardi : 10h00-12h00 | mercredi : 10h00-12h00 | jeudi : 10h00-12h00 | vendredi : 10h00-12h00 | samedi : 10h00-11h00 | dimanche : fermé,,Sur rendez-vous uniquement,0468200597,,2020-09-24
GimgascUUfeLmfOG,110005634,110005964,LBM CERBALLIANCE LANGUEDOC LIBERTE CAS,30 PL DE LA LIBERTE 11400 CASTELNAUDARY,DRIVE,1.95317597345987,43.3193666802412,Drive/Sur place,Tout public,samedi : 12h00-13h00 | dimanche : fermé,,Sur rendez-vous uniquement,0468234786,,2020-09-24
GOPhXPULxUdSgbcp,110005634,110005972,LBM CERBALLIANCE LANGUEDOC PORT CASTEL,7 QU DU PORT 11400 CASTELNAUDARY,DRIVE,1.95338139882462,43.3155172352856,Drive/Sur place,Tout public,lundi au vendredi  : 11h00-13h00 et 14h00-16h00 | samedi :  fermé | dimanche : fermé,,Sur rendez-vous uniquement,0468233030,,2020-09-24
txXbEu5i4hxrOBO3,110005634,310024161,LBM CERBALLIANCE LANGUEDOC VILLEFRANCHE,4 AV DU  GENERAL SARRAIL 31290 VILLEFRANCHE DE LAURAGAIS,DRIVE,1.71532820336136,43.398829661737,Drive/Sur place,Tout public,lundi : 12h00-14h00 | mardi :12h00-14h00 | mercredi : 12h00-14h00 | jeudi : 12h00-14h00 | vendredi : 12h00-14h00 | samedi : 12h00-13h00 | dimanche : fermé,,Sur rendez-vous uniquement,0561816152,doctolib.fr,2020-09-24
DgymJEaRZSg7nXzD,110005667,090002981,LBM SELARL BIOD'OC PAMIERS,11 RTE DE FOIX 09100 PAMIERS,,1.62093417336545,43.1034646437426,Sur place,Tout public,,,Sur rendez-vous uniquement,0561670984,,2020-09-24
JaIa12VeLfUnD27l,110005667,090002999,LBM SELARL BIOD'OC FOIX,10 AV GENERAL DE GAULLE 09000 FOIX,,1.60897849968034,42.9626806457993,Sur place,Tout public,,,,0534093390,,2020-09-24
Z8KjPjanekA53yOQ,110005667,110005675,LBM BIO D'OC CARCASSONNE BRAM CLINIQUE,92 bis Route de Bram 11000 Carcassonne,salle dédiée Covid,2.328145,43.213302,Drive/Sur place,Tout public/Enfants 0-3 ans,,,,0468119100,,2020-09-24
MHVSlzeNhgiTnbrI,110005667,110005691,LBM BIO D'OC LIMOUX,16 AV OSCAR ROUGE 11300 LIMOUX,,2.2161654333572,43.0561554899881,Sur place,Tout public,,,,0468311272,,2020-09-24
4QZJJzGHclgQUUuo,110005667,110007150,LBM BIO D'OC LEZIGNAN CORBIERES,28 R DES ROMAINS 11200 LEZIGNAN CORBIERES,,2.75594315821653,43.1858859773712,Sur place,Tout public,,,,0468270093,,2020-09-24
OvsGBYu6i0hD4Ja1,110005667,110788924,LBM BIO D'OC TREBES,58 BD DU MINERVOIS 11800 TREBES,,2.45622542831534,43.2082772671802,Sur place,Tout public,,,,0468788969,,2020-09-24
78M6HAjHGmTb6aje,110005667,310027495,LBM BIOD'OC REVEL,,,2.00816790427207,43.4575990807848,Sur place,Tout public,,,,0561247070,,2020-09-24
TxE0UgpdlP3vrODk,110005840,110005808,LBM CBL AVICENNE,2 AV MARECHAL JUIN 11000 CARCASSONNE,DRIVE parking du laboratoire au niveau de la contre-allée parallèle à la chambre des métiers au niveau de la tente.,2.37209183947383,43.2125773823687,Drive/Sur place/A domicile/En EHPAD/En étab. santé,Tout public,lundi : 8h00-12h30 et 13h30-19h00 | mardi : 8h00-12h30 et 13h30-19h00 | mercredi : 8h00-12h30 et 13h30-19h00 | jeudi :8h00-12h30 et 13h30-19h00 | vendredi : 8h00-12h30 et 13h30-19h00 | samedi : 8h00-12h00 | dimanche : fermé,,Sur rendez-vous uniquement,0468727970 ou 0468717479,,2020-09-24
OAvhJgd0YniWzmwT,110005840,110005857,LBM CBL NARBONNE,12 Avenue Pierre et Marie Curie 11100 Narbonne,Drive sur le parking du laboratoire,3.003237,43.179026,Drive/Sur place/En EHPAD/En étab. santé/A domicile,Tout public,lundi : 8h-14h | mardi : 8h-14h | mercredi : 8h-14h | jeudi : 8h-14h | vendredi : 8h-14h | samedi : 8h-14h | dimanche : fermé,,Sur rendez-vous uniquement,0468902989 ou 0672082947,,2020-09-24
SPYTu6vz6Ui8jwWF,110005840,340019355,LBM CBL SERIGNAN,1 R JOSEPH LAZARE 34410 SERIGNAN,DRIVE: Stade Aita 2 rue Roger Salingro Serignan,3.28215160994645,43.2794605609406,Drive/En EHPAD/A domicile/En étab. santé,Tout public,lundi : 8h00-12h00 et 14h00-19h00 | mardi : 8h00-12h00 et 14h00-19h00 | mercredi : 8h00-12h00 et 14h00-19h00 | jeudi : 8h00-12h00 et 14h00-19h00 | vendredi : 8h00-12h00 et 14h00-19h00 | samedi : 8h00-12h00 | dimanche : fermé,,Sur rendez-vous uniquement,0467324055  0619577468,,2020-09-24
vSp50c6KLrDvVrs3,110005840,340024389,LBM CBL BEZIERS,17 AV DE LA VOIE DOMITIENNE 34500 BEZIERS,Drive sur le parking du laboratoire,3.24195632880196,43.3465245198284,Drive/Sur place/En EHPAD/En étab. santé,Tout public,lundi : 7h00-19h00 | mardi : 7h00-19h00 | mercredi : 7h00-19h00 | jeudi : 7h00-19h00 | vendredi : 7h00-19h00 |  |,,Sur rendez-vous uniquement,0499479797,,2020-09-24
Fbsc5tIhtWAkNRAl,110780061,110000023,CH CARCASSONNE,1060 CHE DE LA MADELEINE 11010 CARCASSONNE CEDEX 9,,2.39991654241787,43.2191070261999,Sur place,Tout public,,,,0468242006 ou 0468242424,,2020-09-24
vdCCxCKMCUIfpuu1,110780137,110000056,CH NARBONNE HOTEL DIEU,BD DOCTEUR LACROIX 11108 NARBONNE CEDEX,,3.00011307837999,43.180618452757,Sur place,Tout public,,,,0468426100 ou 0468426000,,2020-09-24
4MFfmWhSytRs7AJI,120004528,120004569,CH MILLAU,265 BD ACHILLE SOUQUES 12101 MILLAU CEDEX,,3.05190732983615,44.0929498377714,Sur place,Tout public,,,,0565593000,,2020-09-24
DWg4IbzFJTdGP3I9,120004619,120004668,CH EMILE BOREL ST AFFRIQUE,88 AV DR LUCIEN GALTIER 12402 ST AFFRIQUE CEDEX,,2.8745294731334,43.958138864729,Sur place,Tout public,,,,0565497022,,2020-09-24
wCaqUEBEvxrnd1Qp,120006309,120006895,LBM LXBIO PLATEAU TECHNIQUE,105 Avenue de la Gineste 12000 Rodez,DRIVE - Uniquement le dimanche,2.555636,44.363525,Sur place,Tout public,,,,,,2020-09-24
XHGNBTsp4yzH6sRH,120006309,120783154,CSI Infirmier Villefranche de Panat,Avenue du Lac 12430 Villefranche-de-Panat,tente situé devant le centre de soins,2.703613,44.087714,Sur place,Tout public,,,Sur rendez-vous uniquement,05 65 46 57 09,,2020-09-24
wfRRO71LZn8oYItq,120006309,120783014,CDS infirmier Réquista,2 Boulevard Vicomtes de Cadars 12170 Réquista,LABORATOIRE DE SECTEUR LxBIO LA PRIMAUBE  7 avenue de Rodez 12450 LA PRIMAUBE,2.537588,44.032288,Sur place,Tout public,10h30 à 11h15 du lundi au vendredi | Le samedi orientation vers le laboratoire LxBIO de La Primaube,,Sur rendez-vous uniquement,05 65 74 04 32,,2020-09-24
iajnLcEjFPkOf395,120006309,DRIVE,MSP DU CARLADEZ - MUR DE BARREZ,Grand Rue 12600 Mur-de-Barrez,LABORATOIRE DE SECTEUR LxBIO ESPALION - 4 av d'Estaing - 12500 ESPALION,2.660244,44.844106,Sur place,Tout public,11h à 12h du lundi au vendredi | Le samedi orientation vers le laboratoire LxBIO d'Espalion,,Sur rendez-vous uniquement,05 65 66 03 42,,2020-09-24
CELUMam6bFXKBIQO,120006309,120006317,LBM LxBIO RODEZ CENTRE,22 R BETEILLE 12000 RODEZ,,2.57296249029546,44.3526455353311,Sur place,Tout public,Lundi au vendredi :prélèvement de 18h à 19h | Samedi : prélèvement de 12h00 à 12h30,,Sur rendez-vous uniquement,0565683006,,2020-09-24
5dvP3rodxmNQMW2j,120006309,120006325,LBM LxBIO LA PRIMAUBE,7 AV DE RODEZ 12450 LUC LA PRIMAUBE,,2.55931077725517,44.2932299236717,Sur place,Tout public,Lundi au vendredi :prélèvement de 16h à 17h | Samedi : prélèvement de 12h00 à 12h30,,Sur rendez-vous uniquement,05.65.71.47.71,,2020-09-24
MgnFroZ616sUXmVN,120006309,120006333,LBM LxBIO BARAQUEVILLE,29 Avenue de Marengo 12160 Baraqueville,,2.430161,44.277347,Sur place,Tout public,Lundi au vendredi : prélèvements de 12h à 12h30 | Le samedi : orientation vers le laboratoire de La Primaube,,Sur rendez-vous uniquement,05 65 71 20 90,,2020-09-24
jnUirZOzuyfcOkPk,120006309,120006341,LBM LxBIO RODEZ BOURRAN,R JEAN MONNET 12000 RODEZ,,2.55907955002138,44.3571474545711,Sur place,Tout public,pas de prélèvements réalisés dans ce laboratoire.  | Orientation au Laboratoire LxBIO 22 rue Béteille à Rodez ou le centre UDSMA rue Carrère.,,Sans rendez-vous,05 65 68 00 17,,2020-09-24
51nHv8iesxTKvXjW,120006309,120006358,LBM LxBIO ESPALION,4 AV D ESTAING 12500 ESPALION,,2.76431120773221,44.524639610117,Sur place,Tout public,|Lundi au vendredi : prélèvements de 16h à 17h | Samedi : prélèvement de 12h00 à 12h30 |  |  |,,Sur rendez-vous uniquement,05.65.48.14.46,,2020-09-24
OuVwHYDn6zI352zH,120006309,120006366,LBM LxBIO ONET-LE-CHÂTEAU,6 BD DES CAPUCINES 12000 ONET LE CHATEAU,,2.59179401036268,44.3682476590564,Sur place,Tout public,mardi au vendredi : prélèvements de 16h à 17h (fermé le lundi) | Samedi : prélèvement de 11h30 à 12h,,Sur rendez-vous uniquement,05.65.42.45.04,,2020-09-24
PCoMXqv8A3aLR9BG,120006309,120006382,LBM LxBIO MILLAU JAURÈS,37 AV JEAN JAURES 12100 MILLAU,,3.07952516662623,44.1028571188084,Sur place,Tout public,Lundi au vendredi : prélèvements de 16h à 17h | Samedi : prélèvement de 10h30 à 11h30,,Sur rendez-vous uniquement,05.65.60.10.13,,2020-09-24
D0FnCGiiFrq0XYOG,120006309,120006390,LBM LxBIO DECAZEVILLE,3 PL CABROL 12300 DECAZEVILLE,,2.2543683931783,44.5586806020492,Sur place,Tout public,Lundi au vendredi : prélèvements de 14h à 16h | Samedi : prélèvements de 11h à 12h,,Sur rendez-vous uniquement,05.65.43.13.85,,2020-09-24
Xko3vcTBb5kShaWv,120006309,120006408,LBM LxBIO VILLEFRANCHE-DE-ROUERGUE,PL FONTANGE 12200 VILLEFRANCHE DE ROUERGUE,,2.03136108266667,44.3537355039446,Sur place,Tout public,Lundi au vendredi : prélèvements de 15h à 16h | Samedi : prélèvements de 12h00 à 12h30,,Sur rendez-vous uniquement,05.65.45.11.37,,2020-09-24
CChyKg1RPIJB078D,120006309,120006606,LBM LxBIO ST-AFFRIQUE,1 PL LONJON RAYNAUD 12400 ST AFFRIQUE,,2.88872331753008,43.9576979505584,Sur place,Tout public,Lundi au vendredi : prélèvements de 15h30 à 16h30 | Samedi : prélèvements de 11h00 à 12h00,,Sur rendez-vous uniquement,05.65.99.06.07,,2020-09-24
xSwRz6Tk8u3uEzhw,120006309,120006861,LBM LxBIO SÉVÉRAC D'AVEYRON,AV DU GENERAL DE GAULLE 12150 SEVERAC D AVEYRON,,3.0676786569899,44.3197318502553,Sur place,Tout public,Lundi au jeudi : prélèvement de 10h à 11h | Les autres jours : orientation sur le Laboratoire LxBIO  de Millau,,Sur rendez-vous uniquement,05.65.42.13.58,,2020-09-24
awxC2CSJ6qx8glxg,120780044,120000039,CH DE RODEZ HOPITAL JACQUES PUEL,AV DE L'HOPITAL 12027 RODEZ CEDEX 9,Service des urgences et autres services,2.554847407305,44.3595617852544,Sur place,Tout public,,,,0565552719 ou 0565551212,,2020-09-24
TmeRk33H1XCCfqwg,120780069,120000054,CH VILLEFRANCHE SITE CHARTREUSE,AV CAYLET 12200 VILLEFRANCHE DE ROUERGUE,Service des urgences et autres services,2.0321179371098,44.3423354510432,Sur place,Tout public,,,,0565653000,,2020-10-07
y3jyASyniv8pWYJH,120780069,120008248,SSR CH VILLEFRANCHE SITE RULHE,AV CAYLET 12200 VILLEFRANCHE DE ROUERGUE,,2.0321179371098,44.3423354510432,Sur place,Tout public,,,,,,2020-10-07
3MRkE5fspLvool15,120780069,120008776,CPEF CH VILLEFRANCHE DE ROUERGUE,3 Avenue Joseph Caylet 12200 Villefranche-de-Rouergue,,2.032329,44.343806,Sur place,Tout public,,,,,,2020-10-07
zPRWiQatKwx4eF9J,120780069,120782263,USLD CH VILLEFRANCHE SITE RULHE,RULHE 12200 VILLEFRANCHE DE ROUERGUE,,2.02988489062594,44.3854295475664,Sur place,Tout public,,,,,,2020-10-07
qqr0t6mniUq6lH3c,120780069,120783303,EHPAD CH VILLEFRANCHE SITE CHARTREUSE,R DU BOSQUET 12200 VILLEFRANCHE DE ROUERGUE,,2.03433030451992,44.3441265230006,Sur place,Tout public,,,,,,2020-10-07
mS037lwnOk33ntab,120780069,120785191,EHPAD CH VILLEFRANCHE SITE RULHE,RULHE 12200 VILLEFRANCHE DE ROUERGUE,,2.02988489062594,44.3854295475664,Sur place,Tout public,,,,,,2020-10-07
zXJbKu6GtiD59xRD,120780085,120000070,CH PIERRE DELPECH DECAZEVILLE,60 AV PROSPER ALFARIC 12300 DECAZEVILLE,Service des urgences et autres services,2.25186148563113,44.5691231022663,Sur place,Tout public,,,,0565437171,,2020-10-07
Hn47r6NSwAfwH0Wv,130016116,130016124,SELARL BIO CASAMANCE,33 BD DES FARIGOULES 13400 AUBAGNE,,5.53127177949949,43.2762992675956,Sur place,Cas contacts liste CPAM/Tout public - sur ordonnance,lundi : 15h00-17h00 | mardi :15h00-17h00 | mercredi : 15h00-17h00 | jeudi : 15h00-17h00 | vendredi : 15h00-17h00 | samedi : __ | dimanche : __,,Sur rendez-vous uniquement,0491247050,,2020-09-24
FUc9wXj9cKpK3gXZ,130021546,130021553,LABM LEBAN,126 Avenue de Saint Louis 13015 Marseille,,5.359212,43.347153,Sur place,Tout public,,,Sur rendez-vous uniquement,0491608847,,2020-09-24
qkTlITmShtl64Cql,130039340,130039357,LBM BIOLOGIE MEDICALE SAMBOURG SITE VI - VITROLLES,PL DE LA MAIRIE 13127 VITROLLES,,5.25054816964858,43.4594718994761,Sur place,Tout public,,,Sans rendez-vous,0442159494,,2020-09-24
4H6ykhBtGnpcK6x0,130039340,130039365,LBM BIOLOGIE MEDICALE SAMBOURG SITE VI - VITROLLES,11 R BEL AIR ZAC DE LA TUILIERE 13127 VITROLLES,,5.26920842796216,43.4257022881145,Sur place,Tout public,,,Sans rendez-vous,0442460006,,2020-09-24
owUFBZIz2yM8gHX0,130039340,130039373,LBM BIOLOGIE MEDICALE SAMBOURG SITE AI - AIX EN PROVENCE,8 R CHARLOUN RIEU BT LE VALCROS 13080 AIX EN PROVENCE,,5.39349883043293,43.5080287752913,Sur place,Tout public,,,Sans rendez-vous,0442593559,,2020-09-24
Nf0NFj4qN4aSnkb6,130039340,130039381,LBM BIOLOGIE MEDICALE SAMBOURG SITE CA,AV CDT HELION DE VILLENEUVE 13480 CABRIES,,5.3527435485877,43.4608098201255,Sur place,Tout public,,,Sans rendez-vous,0442692021,,2020-09-24
123nqWGeUy8bRPpR,130039340,130039399,LBM BIOLOGIE MEDICALE SAMBOURG SITE AI - AIX EN PROVENCE,14 R DE LA FOURANE 13080 AIX EN PROVENCE,en Drive,5.44555154636005,43.513407910404,Drive/Sur place,Tout public,,,Sans rendez-vous,0442380008,,2020-09-24
dkmO43aBtwC8GTiv,130039340,130039407,LBM BIOLOGIE MEDICALE SAMBOURG SITE CO,LD FONT PETUGE 13111 COUDOUX,en Drive,5.2512444401521,43.5580864145366,Drive/Sur place,Tout public,,,Sans rendez-vous,0442159495,,2020-09-24
JfI3tAehVCxZnWPY,130039340,130050495,LBM BIOLOGIE MEDICAL SAMBOURG SITE AIX,35 R DE LA DEESSE HESTIA 13080 AIX EN PROVENCE,,,,Sur place,Tout public,,,Sans rendez-vous,0442159492,,2020-09-24
eDtYmr567pANKRtL,130039514,130039522,LBM BRUNY MEYNARD MATTON PERRAUD  SITE SALON DE PROVENCE,111 R DES FRERES KENNEDY 13300 SALON DE PROVENCE,salle dédiée Covid19,5.09621716975705,43.6424861693495,Sur place,Tout public,lundi : 8h00-12h00 et 14h00-19h00 | mardi : 8h00-12h00 et 14h00-19h00 | mercredi : 8h00-12h00 et 14h00-19h00 | jeudi : 8h00-12h00 et 14h00-19h00 | vendredi : 8h00-12h00 et 14h00-19h00 | samedi : 8h00-12h00 | dimanche : fermé,,,0490561366,,2020-09-24
lkxHfvP2rBtpgQmW,130039563,130039233,LBM LABOSUD PROVENCE BIOLOGIE SITE MAR - MARTIGUES,5 R EDOUARD AMAVET 13117 MARTIGUES,local dédié,5.05325572567181,43.4014693222101,Sur place,Tout public,lundi : 07h30-18h30 | mardi : 07h30-18h30 | mercredi : 07h30-18h30 | jeudi :07h30-18h30 | vendredi :07h30-18h30 | samedi : 07h30-12h30 | dimanche : fermé,,sur rendez vous,04 42 81 65 48,,2020-09-24
c1fKEkz67rJzRKFL,130039563,130039241,LBM LABOSUD PROVENCE BIOLOGIE SITE FOS,55 R RENE CASSIN BAT LE TITIEN 13270 FOS SUR MER,,4.94440291211545,43.4547287806707,Sur place,Tout public,lundi : 07h30-19h00 | mardi : 07h30-19h00 | mercredi : 07h30-19h00 | jeudi :07h30-19h00 | vendredi :07h30-19h00 | samedi : 07h30-12h30 | dimanche : fermé,,sur rendez vous,04 42 11 33 00,,2020-09-24
zUZG56KwZq4sTBis,130039563,130039258,LBM LABOSUD PROVENCE BIOLOGIE SITE IST - ISTRES,23 R DE LA POUTRE 13118 ISTRES,,4.98998221108133,43.5053114463137,Sur place,Tout public,lundi : 7h00-18h00 | mardi : 7h00-18h00 | mercredi : 7h00-18h00 | jeudi :7h00-18h00 | vendredi : 7h00-18h00 | samedi : 7h30-12h00 | dimanche : fermé,,sur rendez vous,04 42 55 65 65,,2020-09-24
h16kW4TUYzvQolWn,130039563,130039266,LBM LABOSUD PROVENCE BIOLOGIE SITE MAR - MARIGNANE,2 AV JEAN JAURES 13700 MARIGNANE,,5.21809833410131,43.4182757889423,Sur place,Tout public,lundi : 7h00-19h00  | mardi : 7h00-19h00  | mercredi :7h00-19h00  | jeudi : 7h00-19h00  | vendredi : 7h00-19h00  | samedi : 7h00-12h30 | dimanche : fermé,,sur rendez vous,04 42 31 71 03,,2020-09-24
e3PP6c9NL1aBGgs7,130039563,130039274,LBM LABOSUD PROVENCE BIOLOGIE SITE MIR - MIRAMAS,23 AV CHARLES DE GAULLE 13140 MIRAMAS,,5.00115296146326,43.5823418132811,Sur place,Tout public,lundi : 7h00-19h00  | mardi : 7h00-19h00  | mercredi :7h00-19h00  | jeudi : 7h00-19h00  | vendredi : 7h00-19h00  | samedi : 7h00-12h00 | dimanche : fermé,,sur rendez vous,04 90 50 38 50,,2020-09-24
mIR9IEML1pT3pzim,130039563,130039571,LBM LABOSUD PROVENCE BIOLOGIE SITE MAR - MARSEILLE,581 AV DE MAZARGUES 13009 MARSEILLE,,5.39466252437697,43.253112350487,Sur place,Tout public,lundi : 6h30-19h00  | mardi : 6h30-19h00  | mercredi :6h30-19h00  | jeudi : 6h30-19h00  | vendredi : 6h30-19h00  | samedi : 7h00-12h00 | dimanche : fermé,,sur rendez vous,04 91 77 80 71,,2020-09-24
ylZw0EGVNMblGTZb,130039563,130039589,LBM LABOSUD PROVENCE BIOLOGIE SITE MIC,429 AV DE MAZARGUES 13008 MARSEILLE,,5.39457337650409,43.2586184151982,Sur place,Tout public,lundi : 7h00-19h00  | mardi : 7h00-19h00  | mercredi :7h00-19h00  | jeudi : 7h00-19h00  | vendredi : 7h00-19h00  | samedi : 7h00-12h00 | dimanche : fermé,,sur rendez vous,04 91 77 75 00,,2020-09-24
MSZ9G7Hjqgj9B5mJ,130039563,130039597,LBM LABOSUD PROVENCE BIOLOGIE SITE MAR - MARSEILLE,14 AV ANDRE ZENATTI 13008 MARSEILLE,,5.38240617361436,43.2469506454874,Sur place,Tout public,lundi : 7h00-19h00  | mardi : 7h00-19h00  | mercredi :7h00-19h00  | jeudi : 7h00-19h00  | vendredi : 7h00-19h00  | samedi : 7h30-12h30 | dimanche : fermé,,sur rendez vous,04 91 73 05 00,,2020-09-24
UfyO1Tf3FiPEk4KR,130039563,130039605,LBM LABOSUD PROVENCE BIOLOGIE SITE MAR - MARSEILLE,108 AV DE HAMBOURG 13008 MARSEILLE,,5.38922671364434,43.2500208446064,Sur place,Tout public,lundi : 7h00-19h00  | mardi : 7h00-19h00  | mercredi :7h00-19h00  | jeudi : 7h00-19h00  | vendredi : 7h00-19h00  | samedi : 7h30-12h30 | dimanche : fermé,,sur rendez vous,04 91 73 52 25,,2020-09-24
O20bvL9LC0pHVIYO,130039563,130039613,LBM LABOSUD PROVENCE BIOLOGIE SITE MAR - MARSEILLE,233 R D'ENDOUME 13007 MARSEILLE,,5.35817085765325,43.2842390043836,Sur place,Tout public,lundi : 7h00-19h00  | mardi : 7h00-19h00  | mercredi :7h00-19h00  | jeudi : 7h00-19h00  | vendredi : 7h00-19h00  | samedi : 7h00-12h00 | dimanche : fermé,,sur rendez vous,04 91 52 02 87,,2020-09-24
vJD591m06u5tlBuv,130039563,130039985,LBM LABOSUD PROVENCE BIOLOGIE SITE MAR - MARSEILLE,172 AV DU 24 AVRIL 1915 13012 MARSEILLE,,5.43610056276754,43.308279549558,Sur place,Tout public,lundi : 07h00-18h30 | mardi :07h00-18h30 | mercredi : 07h00-18h30 | jeudi :07h00-18h30 | vendredi : 07h00-18h30 | samedi : 07h30-12h00 | dimanche : fermé,,sur rendez vous,04 91 88 25 25,,2020-09-24
4Ts5Lje4MgLcAJvM,130039563,130039993,LBM LABOSUD PROVENCE BIOLOGIE SITE MAR - MARSEILLE,21 TRA DES ROSIERS 13014 MARSEILLE,,5.38719325097594,43.3228822230156,Sur place,Tout public,lundi : 7h00-17h00  | mardi : 7h00-17h00  | mercredi : 7h00-17h00  | jeudi :7h00-17h00  | vendredi : 7h00-17h00  | samedi : 7h30-12h00 | dimanche : fermé,,sur rendez vous,04 91 98 22 36,,2020-09-24
j4qO1hitIwSUM8u9,130039563,130040009,LBM LABOSUD PROVENCE BIOLOGIE SITE MAR - MARSEILLE,50 R PAUL COXE 13015 MARSEILLE,,5.37799318718835,43.3464453174691,Sur place,Tout public,lundi : 7h30-14h30 | mardi : 7h30-14h30 | mercredi : 7h30-14h30 | jeudi : 7h30-14h30 | vendredi : 7h30-14h30 | samedi : 7h30-12h00 | dimanche : fermé,,sur rendez vous,04 91 03 06 50,,2020-09-24
w30gabTh8Bp8kmIr,130039563,130040454,LBM LABOSUD PROVENCE BIOLOGIE SITE DE,47 RTE NATIONALE 13112 LA DESTROUSSE,,5.60534051358206,43.376960477417,Sur place,Tout public,lundi : 7h00-19h00  | mardi : 7h00-19h00  | mercredi :7h00-19h00  | jeudi : 7h00-19h00  | vendredi : 7h00-19h00  | samedi : 7h00-12h00 | dimanche : fermé,,sur rendez vous,04 42 04 87 07,,2020-09-24
xblLgkrvxwzLOIUS,130039563,130040462,LBM LABOSUD PROVENCE BIOLOGIE SITE AUB - AUBAGNE,2 AV JOSEPH FALLEN 13400 AUBAGNE,,5.56599952047718,43.2929621801563,Sur place,Tout public,lundi : 7h00-19h00  | mardi : 7h00-19h00  | mercredi :7h00-19h00  | jeudi : 7h00-19h00  | vendredi : 7h00-19h00  | samedi : 7h00-13h00 | dimanche : fermé,,sur rendez vous,04 42 36 90 90,,2020-09-24
vtn27jQLsaV0byac,130039563,130040470,LBM LABOSUD PROVENCE BIOLOGIE SITE AUB - AUBAGNE,99 R DE LA REPUBLIQUE 13400 AUBAGNE,,5.57207141171191,43.2896433962785,Sur place,Tout public,lundi : 7h30-12h00 et 14h30-18h30 | mardi : 7h30-12h00 et 14h30-18h30 | mercredi : 7h30-12h00 et 14h30-18h30 | jeudi : 7h30-12h00 et 14h30-18h30 | vendredi :7h30-12h00 et 14h30-18h30 | samedi : 7h30-12h00  | dimanche : fermé,,sur rendez vous,04 42 72 16 00,,2020-09-24
wHa36dlk37XhMFR0,130039563,130040488,LBM LABOSUD PROVENCE BIOLOGIE SITE MAR - MARSEILLE,5 TRA DE LA VERRERIE 13010 MARSEILLE,,5.41966455786585,43.2783786471435,Sur place,Tout public,lundi : 7h00-19h00  | mardi : 7h00-19h00  | mercredi :7h00-19h00  | jeudi : 7h00-19h00  | vendredi : 7h00-19h00  | samedi : 7h00-12h00 | dimanche : fermé,,sur rendez vous,04 91 79 70 67,,2020-09-24
vUpkCTBZ8zXYhJyF,130039563,130040496,LBM LABOSUD PROVENCE BIOLOGIE SITE MAR - MARSEILLE,205 AV DE LA CAPELETTE 13010 MARSEILLE,,5.40892599115208,43.2802664590902,Sur place,Tout public,lundi : 7h00-19h00  | mardi : 7h00-19h00  | mercredi :7h00-19h00  | jeudi : 7h00-19h00  | vendredi : 7h00-19h00  | samedi : 7h00-12h00 | dimanche : fermé,,sur rendez vous,04 91 29 74 90,,2020-09-24
RaPlQlQiMBlf16qa,130039563,130040504,LBM LABOSUD PROVENCE BIOLOGIE SITE MAR - MARSEILLE,98 R DE L AUDIENCE 13011 MARSEILLE,,5.48790978250446,43.2956054124185,Sur place,Tout public,lundi : 7h00-13h00 et 14h30-18h30 | mardi : 7h00-13h00 et 14h30-18h30 | mercredi :7h00-13h00 et 14h30-18h30 | jeudi :7h00-13h00 et 14h30-18h30 | vendredi :7h00-13h00 et 14h30-18h30 | samedi : 7h00-12h00 | dimanche : fermé,,sur rendez vous,0 4 91 43 25 55,,2020-09-24
F1r5tiogA70TAPY0,130039563,130040512,LBM LABOSUD PROVENCE BIOLOGIE SITE MAR - MARSEILLE,5 R ROUVIERE 13001 MARSEILLE,,5.37945957037326,43.2946753966227,Sur place,Tout public,lundi : 7h00-19h00  | mardi : 7h00-19h00  | mercredi :7h00-19h00  | jeudi : 7h00-19h00  | vendredi : 7h00-19h00  | samedi : 7h00-12h00 | dimanche : fermé,,sur rendez vous,04 91 33 30 20,,2020-09-24
p9Uv38mwimNsq5QD,130039563,130040520,LBM LABOSUD PROVENCE BIOLOGIE SITE LA - LA BOUILLADISSE,4 AV DE LA LIBERATION 13720 LA BOUILLADISSE,,5.59410959828431,43.3939021425478,Sur place,Tout public,lundi : 7h00-19h00  | mardi : 7h00-19h00  | mercredi :7h00-19h00  | jeudi : 7h00-19h00  | vendredi : 7h00-19h00  | samedi : 7h00-12h00 | dimanche : fermé,,sur rendez vous,04 42 70 71 90,,2020-09-24
ZhK12NEcWQbmKEXD,130039563,130040538,LBM LABOSUD PROVENCE BIOLOGIE SITE LA - LA PENNE SUR HUVEAUNE,30 BD DE LA GARE 13821 LA PENNE SUR HUVEAUNE,,5.5150746161565,43.2836040261983,Sur place,Tout public,lundi : 7h00-12h30 et 14h30-18h30 | mardi : 7h00-12h30 et 14h30-18h30 | mercredi : 7h00-12h30 et 14h30-18h30 | jeudi : 7h00-12h30 et 14h30-18h30 | vendredi : 7h00-12h30 et 14h30-18h30 | samedi :7h00-12h00 | dimanche : fermé,,sur rendez vous,04 91 36 13 03,,2020-09-24
AeLJ1PHCzgyugVdA,130039563,130040546,LBM LABOSUD PROVENCE BIOLOGIE SITE POR - PORT ST LOUIS DU RHONE,29 AV DU PORT 13230 PORT ST LOUIS DU RHONE,,4.80236340928302,43.3889755952264,Sur place,Tout public,lundi : 7h30-12h00 et 14h00-18h00 | mardi : 7h30-12h00 et 14h00-18h00 | mercredi :7h30-12h00 et 14h00-18h00 | jeudi : 7h30-12h00 et 14h00-18h00 | vendredi : 7h30-12h00 et 14h00-18h00 | samedi : 8h00-12h00 | dimanche : fermé,,sur rendez vous,04 42 86 04 14,,2020-09-24
jpb92f4j1hu6isrO,130039563,130040595,LBM LABOSUD PROVENCE BIOLOGIE SITE GIG,4 LOT DE LA FONSE QUA FAUCON 13180 GIGNAC LA NERTHE,,5.22894583772517,43.3929575559862,Sur place,Tout public,lundi : 7h00-19h00  | mardi : 7h00-19h00  | mercredi :7h00-19h00  | jeudi : 7h00-19h00  | vendredi : 7h00-19h00  | samedi : 8h00-12h30 | dimanche : fermé,,sur rendez vous,04 42 30 58 17,,2020-09-24
HowTcUw5mWS8YJqs,130039563,130040611,LBM LABOSUD PROVENCE BIOLOGIE SITE MAR - MARSEILLE,176 AV DU PRADO 13008 MARSEILLE,,5.38783268166799,43.2779781013918,Sur place,Tout public,lundi : 7h30-12h30 et 14h00-18h30 | mardi : 7h30-12h30 et 14h00-18h30 | mercredi : 7h30-12h30 et 14h00-18h30 | jeudi : 7h30-12h30 et 14h00-18h30 | vendredi : 7h30-12h30 et 14h00-18h30 | samedi : 8h00-12h00 | dimanche : fermé,,sur rendez vous,04 91 37 95 59,,2020-09-24
rTVERMmXqvm8dfk6,130039563,130040629,LBM LABOSUD PROVENCE BIOLOGIE SITE MAR - MARSEILLE,301 AV DU PRADO 13008 MARSEILLE,,5.39080253056687,43.2718889831817,Sur place,Tout public,lundi : 7h30-18h00  | mardi : 7h30-18h00  | mercredi : 7h30-18h00  | jeudi : 7h30-18h00  | vendredi : 7h30-18h00  | samedi : 8h00-12h00 | dimanche : fermé,,sur rendez vous,04 91 77 08 94,,2020-09-24
sgDWHLAAqG8lmqRL,130039563,130040637,LBM LABOSUD PROVENCE BIOLOGIE SITE MAR - MARSEILLE,2 R LOUIS MAUREL 13006 MARSEILLE,,5.3828805067858,43.2857164262532,Sur place,Tout public,lundi : 7h00-18h30  | mardi : 7h00-18h30  | mercredi : 7h00-18h30  | jeudi : 7h00-18h30  | vendredi : 7h00-18h30  | samedi : 7h30-12h00 | dimanche : fermé,,sur rendez vous,04 91 37 75 56,,2020-09-24
2gYzrgA6MdQLpsye,130039563,130040801,LBM LABOSUD PROVENCE BIOLOGIE SITE LE - LE ROVE,64 RTE NATIONALE 568 13740 LE ROVE,,5.25157217592463,43.3683030403962,Sur place,Tout public,lundi : 6h45-19h00 | mardi : 6h45-19h00 | mercredi : 6h45-19h00 | jeudi : 6h45-19h00 | vendredi : 6h45-19h00 | samedi : 7h30-12h00 | dimanche : fermé,,sur rendez vous,04 91 09 98 19,,2020-09-24
XBQwdwQbSJ59q5Hi,130039563,130041270,LBM LABOSUD PROVENCE BIOLOGIE SITE MAR - MARSEILLE,66 TRA SAINT JEAN DU DESERT 13012 MARSEILLE,,5.4364993095904,43.2990815906336,Sur place,Tout public,lundi : 7h30-12h30 et 14h30-18h30 | mardi : 7h30-12h30 et 14h30-18h30 | mercredi : 7h30-12h30 et 14h30-18h30 | jeudi : 7h30-12h30 et 14h30-18h30 | vendredi : 7h30-12h30 et 14h30-18h30 | samedi : 7h30-12h00 | dimanche : fermé,,sur rendez vous,04 91 93 02 40,,2020-09-24
Nxgcawi5JnoLz8vp,130039563,130041411,LBM LABOSUD PROVENCE BIOLOGIE SITE MAR - MARSEILLE,16 R DRAGON 13006 MARSEILLE,,5.38131289603077,43.2885057820673,Sur place,Tout public,lundi : 7h30-19h00 | mardi : 7h30-19h00 | mercredi : 7h30-19h00 | jeudi :7h30-19h00 | vendredi : 7h30-19h00 | samedi : 7h30-12h00 | dimanche : fermé,,sur rendez vous,04 91 53 32 42,,2020-09-24
mpoWM8vK9hwxsmlY,130039563,130041429,LBM LABOSUD PROVENCE BIOLOGIE SITE MAR - MARSEILLE,52 R FRANCIS DAVSO 13001 MARSEILLE,,5.37497352127403,43.2928814408181,Sur place,Tout public,lundi : 7h15-18h30 | mardi : 7h15-18h30 | mercredi : 7h15-18h30 | jeudi : 7h15-18h30 | vendredi : 7h15-18h30 | samedi : fermé | dimanche : fermé,,sur rendez vous,04 91 33 06 61,,2020-09-24
xLWle2WKjBCxUiWk,130039563,130041437,LBM LABOSUD PROVENCE BIOLOGIE SITE MAR - MARSEILLE,14 SQ BELSUNCE 13001 MARSEILLE,,5.37631399884625,43.2979935049022,Sur place,Tout public,lundi : 7h00-18h30 | mardi : 7h00-18h30 | mercredi : 7h00-18h30 | jeudi : 7h00-18h30 | vendredi : 7h00-18h30 | samedi : 7h30-12h00 | dimanche : fermé,,sur rendez vous,04 91 91 06 99,,2020-09-24
WcyHWbuiIVsyW32m,130039563,130041445,LBM LABOSUD PROVENCE BIOLOGIE SITE MAR - MARSEILLE,11 PL BERNARD CADENAT 13003 MARSEILLE,,5.38704965648669,43.3124212129063,Sur place,Tout public,lundi : 7h00-18h30 | mardi : 7h00-18h30 | mercredi : 7h00-18h30 | jeudi : 7h00-18h30 | vendredi : 7h00-18h30 | samedi : 7h30-12h00 | dimanche : fermé,,sur rendez vous,04 91 08 03 88,,2020-09-24
ipdtgFicIv9idiUa,130039563,130041452,LBM LABOSUD PROVENCE BIOLOGIE SITE MAR - MARSEILLE,82 R ALPHONSE DAUDET 13013 MARSEILLE,,5.40917200824215,43.3196254194523,Sur place,Tout public,lundi : 7h00-18h30 | mardi : 7h00-18h30 | mercredi : 7h00-18h30 | jeudi : 7h00-18h30 | vendredi : 7h00-18h30 | samedi : 7h30-12h00 | dimanche : fermé,,sur rendez vous,04 91 66 43 64,,2020-09-24
vy9HBkMzLwb3Saj5,130039563,130041478,LBM LABOSUD PROVENCE BIOLOGIE SITE MAR - MARSEILLE,8 AV DE CHATEAU GOMBERT 13013 MARSEILLE,,5.43432955383385,43.3517640588764,Sur place,Tout public,lundi : 6h30-19h00  | mardi : 6h30-19h00  | mercredi :6h30-19h00  | jeudi : 6h30-19h00  | vendredi : 6h30-19h00  | samedi : 7h00-12h00 | dimanche : fermé,,sur rendez vous,04 91 68 24 92,,2020-09-24
CNuQemx3xe05tbCk,130039563,130041486,LBM LABOSUD PROVENCE BIOLOGIE SITE MAR - MARSEILLE,AV ALBERT EINSTEIN 13013 MARSEILLE,,5.44162280396515,43.3398444156717,Sur place,Tout public,lundi : 7h00-19h00  | mardi : 7h00-19h00  | mercredi :7h00-19h00  | jeudi : 7h00-19h00  | vendredi : 7h00-19h00  | samedi : 7h00-12h00 | dimanche : fermé,,sur rendez vous,04 13 42 03 10,,2020-09-24
YWPrPcbkUPxMOdQ5,130039563,130041494,LBM LABOSUD PROVENCE BIOLOGIE SITE MAR - MARSEILLE,15 AV FRANCOIS MIGNET 13013 MARSEILLE,,5.42727797462985,43.3301798406651,Sur place,Tout public,lundi : 6h30-18h30  | mardi : 6h30-18h30 | mercredi : 6h30-18h30 | jeudi : 6h30-18h30 | vendredi : 6h30-18h30 | samedi : 7h00-12h00 | dimanche : fermé,,sur rendez vous,04 91 06 14 60,,2020-09-24
nOT0Sddpkg9jGlBV,130039563,130041502,LBM LABOSUD PROVENCE BIOLOGIE SITE MAR - MARSEILLE,1 Boulevard de la Concorde 13009 Marseille,,5.403315,43.250348,Sur place,Tout public,lundi : 7h00-19h00  | mardi : 7h00-19h00  | mercredi :7h00-19h00  | jeudi : 7h00-19h00  | vendredi : 7h00-19h00  | samedi : 7h00-12h00 | dimanche : fermé,,sur rendez vous,04 91 40 14 08,,2020-09-24
kElJa7PiTQRuxuMg,130039563,130041882,LBM LABOSUD PROVENCE BIOLOGIE SITE MIR - MIRAMAS,46 AV CHARLES DE GAULLE 13140 MIRAMAS,,5.00165690003578,43.583620486704,Sur place,Tout public,lundi : 7h30-12h30 | mardi : 7h30-12h30 | mercredi : 7h30-12h30 | jeudi : 7h30-12h30 | vendredi : 7h30-12h30 | samedi : 7h30-12h00 | dimanche : fermé,,sur rendez vous,04 90 58 00 35,,2020-09-24
pIb4Kg9B2IUbMCFf,130039563,130041890,LBM LABOSUD PROVENCE BIOLOGIE SITE ST - ST CHAMAS,AV DE SAINT EXUPERY 13250 ST CHAMAS,,5.03362535942167,43.5534880633856,Sur place,Tout public,lundi : 7h30-12h30 et 14h00-18h30 | mardi : 7h30-12h30 et 14h00-18h30 | mercredi : 7h30-12h30 et 14h00-18h30 | jeudi : 7h30-12h30 et 14h00-18h30 | vendredi : 7h30-12h30 et 14h00-18h30 | samedi : 7h30-12h00 | dimanche : fermé,,sur rendez vous,04 90 50 70 30,doctolib.fr,2020-09-24
wenxu60O4c13MrQx,130039563,130042468,LBM LABOSUD PROVENCE BIOLOGIE SITE MAR - MARSEILLE,112 PLAG DE L ESTAQUE 13016 MARSEILLE,,5.31244687488938,43.3612331250948,Sur place,Tout public,lundi : 7h00-18h30 | mardi : 7h00-18h30 | mercredi : 7h00-18h30 | jeudi : 7h00-18h30 | vendredi : 7h00-18h30 | samedi : 8h00-12h00 | dimanche : fermé,,sur rendez vous,04 91 09 32 72,,2020-09-24
NptbRZLOxfStMjXc,130039563,130042476,LBM LABOSUD PROVENCE  BIOLOGIE SITE MA,57 CHE DE SAINT ANTOINE 13015 MARSEILLE,,5.35630755050411,43.3691554752988,Sur place,Tout public,lundi : 7h00-19h00  | mardi : 7h00-19h00  | mercredi :7h00-19h00  | jeudi : 7h00-19h00  | vendredi : 7h00-19h00  | samedi : 8h00-12h00 | dimanche : fermé,,sur rendez vous,04 96 15 81 10,,2020-09-24
Se1zoAXTbpeitwXI,130039563,130042948,LBM LABOSUD PROVENCE BIOLOGIE SITE MAR - MARTIGUES,14 BD GABRIEL PERI 13117 MARTIGUES,,5.0530543993177,43.4110854320019,Sur place,Tout public,lundi : 7h30-18h30 | mardi : 7h30-18h30 | mercredi : 7h30-18h30 | jeudi : 7h30-18h30 | vendredi : 7h30-18h30 | samedi : 7h30-12h30 | dimanche : fermé,,sur rendez vous,04 42 80 15 92,,2020-09-24
6CcHYb7MWJsMV1e2,130039563,130042955,LBM LABOSUD PROVENCE BIOLOGIE SITE MAR - MARTIGUES,ZAC CANTO PERDRIX 13117 MARTIGUES,,5.05291686196605,43.4180617411167,Sur place,Tout public,llundi : 7h30-18h30 | mardi : 7h30-18h30 | mercredi : 7h30-18h30 | jeudi : 7h30-18h30 | vendredi : 7h30-18h30 | samedi : 7h30-12h30 | dimanche : fermé,,sur rendez vous,04 42 42 03 03,,2020-09-24
TTyWAkXU9PbuiIwr,130039563,130042963,LBM LABOSUD PROVENCE BIOLOGIE SITE MAR - MARIGNANE,AV DU 8 MAI 1945 13700 MARIGNANE,,5.21740496632594,43.4112402925794,Sur place,Tout public,lundi : 7h00-19h00  | mardi : 7h00-19h00  | mercredi :7h00-19h00  | jeudi : 7h00-19h00  | vendredi : 7h00-19h00  | samedi : 7h30-12h30 | dimanche : fermé,,sur rendez vous,04 42 09 77 31,,2020-09-24
HXp5zsNCyfWK7VCr,130039563,130042971,LBM LABOSUD PROVENCE BIOLOGIE SITE IST - ISTRES,44 CHE DU BORD DE CRAU 13118 ISTRES,,4.96244806593392,43.525882883451,Sur place,Tout public,lundi : 7h30-18h00 | mardi : 7h30-18h00 | mercredi : 7h30-18h00 | jeudi : 7h30-18h00 | vendredi : 7h30-18h00 | samedi : 7h30-12h00 | dimanche : fermé,,sur rendez vous,04 42 55 00 08,,2020-09-24
e535XEdog3EN80Zy,130039563,130042989,LBM LABOSUD PROVENCE BIOLOGIE SITE POR - PORT DE BOUC,44 AV MAURICE THOREZ 13110 PORT DE BOUC,,4.98039625490853,43.4035392322521,Sur place,Tout public,lundi : 7h00-18h30 | mardi : 7h00-18h30 | mercredi : 7h00-18h30 | jeudi : 7h00-18h30 | vendredi : 7h00-18h30 | samedi : 7h00-12h00 | dimanche : fermé,,sur rendez vous,04 13 29 00 40,,2020-09-24
jSC4QYKxwv9mCNUZ,130039563,130042997,LBM LABOSUD PROVENCE BIOLOGIE SITE AIX - AIX EN PROVENCE,CRS MIRABEAU 13080 AIX EN PROVENCE,,5.44902355335499,43.5267597533397,Sur place,Tout public,lundi : 7h30-18h30 | mardi : 7h30-18h30 | mercredi : 7h30-18h30 | jeudi : 7h30-18h30 | vendredi : 7h30-18h30 | samedi : 7h30-12h00 | dimanche : fermé,,sur rendez vous,04 42 27 85 74,,2020-09-24
txxwywaCPJifWEDB,130039563,130043003,LBM LABOSUD PROVENCE BIOLOGIE SITE AIX - AIX EN PROVENCE,355 RTE DE BERRE 13080 AIX EN PROVENCE,,5.41257265501459,43.5343383348108,Sur place,Tout public,lundi : 7h30-18h30 | mardi : 7h30-18h30 | mercredi : 7h30-18h30 | jeudi : 7h30-18h30 | vendredi : 7h30-18h30 | samedi : 7h30-12h00 | dimanche : fermé,,sur rendez vous,04 42 95 09 95,,2020-09-24
DM4lXrYbvyonPUpF,130039563,130043011,LBM LABOSUD PROVENCE BIOLOGIE SITE LE - AIX EN PROVENCE,203 DOM DE L'ESCALADE 13080 AIX EN PROVENCE,local dédié,5.44743354825374,43.5297427296859,Sur place,Tout public,lundi : 7h00-18h30 | mardi : 7h00-18h30 | mercredi : 7h00-18h30 | jeudi : 7h00-18h30 | vendredi : 7h00-18h30 | samedi : 7h30-12h00 | dimanche : fermé,,sur rendez vous,04 42 96 92 12,,2020-09-24
9k9p2FopGPPUvDkJ,130039563,130043029,LBM LABOSUD PROVENCE BIOLOGIE SITE ST - ST MITRE LES REMPARTS,3 R MAROTTE 13920 ST MITRE LES REMPARTS,,5.01411542331119,43.4540585006706,Sur place,Tout public,lundi : 7h30-12h00 et 14h30-18h00 | mardi : 7h30-12h00 et 14h30-18h00 | mercredi : 7h30-12h00 et 14h30-18h00 | jeudi : 7h30-12h00 et 14h30-18h00 | vendredi : 7h30-12h00 et 14h30-18h00 | samedi : 7h30-12h00 | dimanche : fermé,,sur rendez vous,04 42 49 18 12,,2020-09-24
c6Sv6sT0zHELt4g7,130039563,130043474,LBM LABOSUD PROVENCE BIOLOGIE SITE MAR - MARSEILLE,98 BD CHAVE 13005 MARSEILLE,,5.39255893920349,43.295230361633,Sur place,Tout public,lundi : 7h30-19h00  | mardi : 7h30-19h00  | mercredi : 7h30-19h00  | jeudi : 7h30-19h00  | vendredi : 7h30-19h00  | samedi : 7h30-12h30 | dimanche : fermé,,sur rendez vous,04 91 47 81 96,,2020-09-24
siMNYlfO5Qx5dJWK,130039563,130043599,LBM LABOSUD PROVENCE BIOLOGIE SITE AUB - AUBAGNE,1320 RTE NATIONALE 8 13400 AUBAGNE,,5.59660822581443,43.2830685664051,Sur place,Tout public,lundi : 7h00-18h30 | mardi : 7h00-18h30 | mercredi : 7h00-18h30 | jeudi : 7h00-18h30 | vendredi : 7h00-18h30 | samedi : 7h00-12h00 | dimanche : fermé,,sur rendez vous,04 42 84 10 98,,2020-09-24
tr1CjAOcCyus1t15,130039563,130043763,LBM LABOSUD PROVENCE BIOLOGIE SITE VEL,39 R JULES ANDRAUD 13880 VELAUX,,5.2582579831559,43.5233059892013,Sur place,Tout public,Prise de rendez-vous entre 7h00 et 13h00,,sur rendez vous,04 42 34 73 66,,2020-09-24
r2tPj1MzjU1tcBWz,130039563,130043888,LBM LABOSUD PROVENCE BIOLOGIE SITE MAR - MARSEILLE,160 AV DE FRAIS VALLON 13013 MARSEILLE,,5.43527479956675,43.3246737602244,Sur place,Tout public,lundi : 7h00-13h00 et 14h30-18h30 | mardi : 7h00-13h00 et 14h30-18h30 | mercredi : 7h00-13h00 et 14h30-18h30 | jeudi : 7h00-13h00 et 14h30-18h30 | vendredi : 7h00-13h00 et 14h30-18h30 | samedi : 7h00-12h00 | dimanche : fermé,,sur rendez vous,04 13 42 39 00,,2020-09-24
yzZ9HFAp1zPdwpC3,130039563,130044647,LBMLABOSUD PROVENCE BIOLOGIE SITE MARS,40 AV DE LA ROSE 13013 MARSEILLE,,5.41918451810488,43.3247568644744,Sur place,Tout public,lundi : 13h30 - 16h00 | mardi : 13h30 - 16h00 | mercredi : 13h30 - 16h00 | jeudi : 13h30 - 16h00 | vendredi : 13h30 - 16h00 | samedi : 13h30 - 16h00 | dimanche : fermé,,sur rendez vous,0491666802,,2020-09-24
lahTr1YZ39EGrGiE,130039621,AUTRE,LBM SYNLAB PROVENCE SITE MANOSQUE,Avenue du Majoral Raoul Arnaud 04100 Manosque,Laboratoire,5.781829,43.830704,Sur place/En EHPAD/En étab. santé,Tout public,Prise de RDV : manosque-centre@provence.synlab.fr,,Sur rendez-vous uniquement,0492705875,manosque-centre@provence.synlab.fr,2020-09-24
P816wdp7CK2QdozC,130039621,040004749,LBM SYNLAB PROVENCE SITE GREOUX,14 AV DES ALPES 04800 GREOUX LES BAINS,,5.88229926558201,43.7582176161169,Sur place/En EHPAD/En étab. santé,Tout public,Prise de RDV : greoux@provence.synlab.fr,,Sur rendez-vous uniquement,0492742422,greoux@provence.synlab.fr,2020-09-24
5bCIi6DTJEn6qhRi,130039621,040004814,LBM SYNLAB PROVENCE SITE FORCALQUIER,R DU SOUVENIR FRANCAIS 04300 FORCALQUIER,,5.78001678739651,43.9610350745043,Sur place/En EHPAD/En étab. santé,Tout public,Prise de RDV : forqualcier@provence.synlab.fr,,Sur rendez-vous uniquement,0492750792,forqualcier@provence.synla.fr,2020-09-24
KAYFvxA6zemHsdlq,130039621,130021405,LBM SYNLAB PROVENCE SITE SAINTE MARTHE,174 CHE DE SAINTE MARTHE 13014 MARSEILLE,,5.38778318006248,43.3288793674208,Sur place/En EHPAD/En étab. santé,Tout public,Prise de RDV : sainte-marthe@provence.synlab.fr,,Sur rendez-vous uniquement,0491981327,sainte-marthe@provence.synlab.fr,2020-09-24
kuNKFLWPAWmjcPd0,130039621,130039316,LBM SYNLAB PROVENCE  SITE LE PUY SAINTE REPARADE,6 AV DU COURS 13610 LE PUY STE REPARADE,,5.43472915618788,43.6621313270054,Sur place/En EHPAD/En étab. santé,Tout public,Prise de RDV : le-puy-sainte-reparade@provence.synlab.fr,,Sur rendez-vous uniquement,0442619281,le-puy-sainte-reparade@provence.synlab.fr,2020-09-24
Bx7w9PExtMyQ9T88,130039621,130039324,LBM SYNLAB PROVENCE SITE ROGNAC,2 Avenue Charles de Gaulle 13340 Rognac,,5.229995,43.488584,Sur place/En EHPAD/En étab. santé,Tout public,Prise de RDV : rognac@provence.synlab.fr,,Sur rendez-vous uniquement,0442875110,rognac@provence.synlab.fr,2020-09-24
Aq2thXsHMstruI5V,130039621,130039639,LBM SYNLAB PROVENCE VERT COTEAU,93 AV DES CAILLOLS 13012 MARSEILLE,,5.43170679313189,43.3036588973363,Sur place/En EHPAD/En étab. santé,Tout public,Prise de RDV : vert-coteau@provence.synlab.fr,,Sur rendez-vous uniquement,0491184240,vert-coteau@provence.synlab.fr,2020-09-24
BByDJgOqkxAybozs,130039621,130039647,LBM SYNLAB PROVENCE SITE BRETEUIL,222 R BRETEUIL 13006 MARSEILLE,,5.37827252976196,43.2805036662961,Sur place/En EHPAD/En étab. santé,Tout public,Prise de RDV : haut-breteuil@provence.synlab.fr,,Sur rendez-vous uniquement,0491532491,haut-breteuil@provence.synlab.fr,2020-09-24
lRBYOih6SjCBtmGa,130039621,130039662,LBM SYNLAB PROVENCE SITE CARRY,AV DRAIO DE LA MAR 13620 CARRY LE ROUET,,5.14266184123698,43.3294126921053,Sur place/En EHPAD/En étab. santé,Tout public,Prise de RDV : carry-le-rouet@provence.synlab.fr,,Sur rendez-vous uniquement,0442451745,carry-le-rouet@provence.synlab.fr,2020-09-24
1UyMd1IDctCBzKo3,130039621,130039670,LBM SYNLAB PROVENCE SITE BOSPHORE,44 BD DU BOSPHORE 13015 MARSEILLE,,5.36428382191927,43.3713008329031,Sur place/En EHPAD/En étab. santé,Tout public,Prise de RDV : laboratoire.bosphore@provence.synlab.fr,,Sur rendez-vous uniquement,0491656717,laboratoire.bosphore@provence.synlab.fr,2020-09-24
uhaqAymMtcd4gCRw,130039621,130039696,LBM SYNLAB PROVENCE SITE MONTGRAND,9 R MONTGRAND 13006 MARSEILLE,,5.37872007876204,43.2916533778904,Sur place/En EHPAD/En étab. santé,Tout public,Prise de RDV : montgrand@provence.synlab.fr,,Sur rendez-vous uniquement,0491544224,montgrand@provence.synlab.fr,2020-09-24
